"stop_id","stop_code","stop_name","stop_desc","stop_lat","stop_lon","stop_url","location_type","parent_station","wheelchair_boarding"
1271,"1271","Kołłątaja 11-15","",53.443798,14.548237,"http://www.zditm.szczecin.pl/rozklady/",1,,
10111,"10111","Turzyn Dworzec 11","",53.428414,14.527251,"http://www.zditm.szczecin.pl/s10111",,,
10112,"10112","Turzyn Dworzec 12","",53.427956,14.529595,"http://www.zditm.szczecin.pl/s10112",,,
10211,"10211","Turzyn 11","",53.429218,14.531897,"http://www.zditm.szczecin.pl/s10211",,,
10212,"10212","Turzyn 12","",53.428561,14.531929,"http://www.zditm.szczecin.pl/s10212",,,1
10221,"10221","Turzyn 21","",53.427908,14.532659,"http://www.zditm.szczecin.pl/s10221",,,
10311,"10311","Bolesława Śmiałego 11","",53.427642,14.535148,"http://www.zditm.szczecin.pl/s10311",,,
10412,"10412","Plac Kościuszki 12","",53.427574,14.537168,"http://www.zditm.szczecin.pl/s10412",,,1
10421,"10421","Plac Kościuszki 21","",53.427121,14.537776,"http://www.zditm.szczecin.pl/s10421",,,
10422,"10422","Plac Kościuszki 22","",53.426930,14.538023,"http://www.zditm.szczecin.pl/s10422",,,
10431,"10431","Plac Kościuszki 31","",53.426332,14.536934,"http://www.zditm.szczecin.pl/s10431",,,
10432,"10432","Plac Kościuszki 32","",53.425971,14.537406,"http://www.zditm.szczecin.pl/s10432",,,
10433,"10433","Plac Kościuszki 33","",53.425632,14.536638,"http://www.zditm.szczecin.pl/s10433",,,
10434,"10434","Plac Kościuszki 34","",53.426620,14.536864,"http://www.zditm.szczecin.pl/s10434",,,1
10435,"10435","Plac Kościuszki 35","",53.426415,14.536534,"http://www.zditm.szczecin.pl/s10435",,,
10441,"10441","Plac Kościuszki 41","",53.426968,14.536140,"http://www.zditm.szczecin.pl/s10441",,,1
10442,"10442","Plac Kościuszki 42","",53.426846,14.535754,"http://www.zditm.szczecin.pl/s10442",,,
10451,"10451","Plac Kościuszki 51","",53.427364,14.536006,"http://www.zditm.szczecin.pl/s10451",,,
10511,"10511","Krzywoustego 11","",53.426898,14.539386,"http://www.zditm.szczecin.pl/s10511",,,
10611,"10611","Łokietka 11","",53.425258,14.541832,"http://www.zditm.szczecin.pl/s10611",,,
10711,"10711","Plac Zwycięstwa 11","",53.425670,14.548285,"http://www.zditm.szczecin.pl/s10711",,,
10721,"10721","Plac Zwycięstwa 21","",53.425293,14.547416,"http://www.zditm.szczecin.pl/s10721",,,
10731,"10731","Plac Zwycięstwa 31","",53.425082,14.546469,"http://www.zditm.szczecin.pl/s10731",,,
10812,"10812","Brama Portowa 12","",53.425482,14.551069,"http://www.zditm.szczecin.pl/s10812",,,1
10813,"10813","Brama Portowa 13","",53.425418,14.551150,"http://www.zditm.szczecin.pl/s10813",,,1
10814,"10814","Brama Portowa 14","",53.425480,14.551394,"http://www.zditm.szczecin.pl/s10814",,,
10821,"10821","Brama Portowa 21","",53.424900,14.551644,"http://www.zditm.szczecin.pl/s10821",,,1
10822,"10822","Brama Portowa 22","",53.424850,14.551621,"http://www.zditm.szczecin.pl/s10822",,,1
10823,"10823","Brama Portowa 23","",53.424651,14.551893,"http://www.zditm.szczecin.pl/s10823",,,1
10831,"10831","Brama Portowa 31","",53.424464,14.550888,"http://www.zditm.szczecin.pl/s10831",,,1
10832,"10832","Brama Portowa 32","",53.424478,14.550810,"http://www.zditm.szczecin.pl/s10832",,,1
10833,"10833","Brama Portowa 33","",53.424158,14.550541,"http://www.zditm.szczecin.pl/s10833",,,
10842,"10842","Brama Portowa 42","",53.425162,14.549605,"http://www.zditm.szczecin.pl/s10842",,,
10843,"10843","Brama Portowa 43","",53.425210,14.549610,"http://www.zditm.szczecin.pl/s10843",,,
10911,"10911","Wyszyńskiego 11","",53.423215,14.558365,"http://www.zditm.szczecin.pl/s10911",,,
10912,"10912","Wyszyńskiego 12","",53.423346,14.558118,"http://www.zditm.szczecin.pl/s10912",,,
10913,"10913","Wyszyńskiego 13","",53.423474,14.557861,"http://www.zditm.szczecin.pl/s10913",,,
10914,"10914","Wyszyńskiego 14","",53.423086,14.558878,"http://www.zditm.szczecin.pl/s10914",,,
10915,"10915","Wyszyńskiego 15","",53.423277,14.558665,"http://www.zditm.szczecin.pl/s10915",,,
10916,"10916","Wyszyńskiego 16","",53.423271,14.558998,"http://www.zditm.szczecin.pl/s10916",,,
10917,"10917","Wyszyńskiego 17","",53.423391,14.558781,"http://www.zditm.szczecin.pl/s10917",,,
10918,"10918","Wyszyńskiego 18","",53.423510,14.558532,"http://www.zditm.szczecin.pl/s10918",,,
10921,"10921","Wyszyńskiego 21","",53.423058,14.559835,"http://www.zditm.szczecin.pl/s10921",,,
10922,"10922","Wyszyńskiego 22","",53.422865,14.560218,"http://www.zditm.szczecin.pl/s10922",,,
10931,"10931","Wyszyńskiego 31","",53.422346,14.558848,"http://www.zditm.szczecin.pl/s10931",,,
10932,"10932","Wyszyńskiego 32","",53.422528,14.558858,"http://www.zditm.szczecin.pl/s10932",,,
11011,"11011","Grodzka 11","",53.425168,14.556584,"http://www.zditm.szczecin.pl/s11011",,,
11111,"11111","Tkacka 11","",53.425175,14.552475,"http://www.zditm.szczecin.pl/s11111",,,
11112,"11112","Tkacka 12","",53.425232,14.553553,"http://www.zditm.szczecin.pl/s11112",,,
11311,"11311","Plac Żołnierza Polskiego 11","",53.429388,14.553387,"http://www.zditm.szczecin.pl/s11311",,,
11312,"11312","Plac Żołnierza Polskiego 12","",53.429205,14.553446,"http://www.zditm.szczecin.pl/s11312",,,
11321,"11321","Plac Żołnierza Polskiego 21","",53.428710,14.553832,"http://www.zditm.szczecin.pl/s11321",,,
11331,"11331","Plac Żołnierza Polskiego 31","",53.428320,14.552544,"http://www.zditm.szczecin.pl/s11331",,,
11332,"11332","Plac Żołnierza Polskiego 32","",53.428358,14.552421,"http://www.zditm.szczecin.pl/s11332",,,
11411,"11411","Filharmonia 11","",53.430126,14.557335,"http://www.zditm.szczecin.pl/s11411",,,
11412,"11412","Filharmonia 12","",53.430321,14.557485,"http://www.zditm.szczecin.pl/s11412",,,
11511,"11511","Plac Rodła 11","",53.432369,14.554610,"http://www.zditm.szczecin.pl/s11511",,,
11521,"11521","Plac Rodła 21","",53.431689,14.556198,"http://www.zditm.szczecin.pl/s11521",,,
11522,"11522","Plac Rodła 22","",53.431622,14.557147,"http://www.zditm.szczecin.pl/s11522",,,
11523,"11523","Plac Rodła 23","",53.431542,14.557008,"http://www.zditm.szczecin.pl/s11523",,,
11524,"11524","Plac Rodła 24","",53.431679,14.555624,"http://www.zditm.szczecin.pl/s11524",,,
11525,"11525","Plac Rodła 25","",53.431363,14.556530,"http://www.zditm.szczecin.pl/s11525",,,
11526,"11526","Plac Rodła 26","",53.431296,14.556943,"http://www.zditm.szczecin.pl/s11526",,,
11532,"11532","Plac Rodła 32","",53.430289,14.554170,"http://www.zditm.szczecin.pl/s11532",,,1
11534,"11534","Plac Rodła 34","",53.431302,14.554535,"http://www.zditm.szczecin.pl/s11534",,,
11535,"11535","Plac Rodła 35","",53.431149,14.554213,"http://www.zditm.szczecin.pl/s11535",,,
11541,"11541","Plac Rodła 41","",53.431861,14.553258,"http://www.zditm.szczecin.pl/s11541",,,
11542,"11542","Plac Rodła 42","",53.431845,14.554079,"http://www.zditm.szczecin.pl/s11542",,,
11543,"11543","Plac Rodła 43","",53.431999,14.553832,"http://www.zditm.szczecin.pl/s11543",,,
11611,"11611","Plac Grunwaldzki 11","",53.432724,14.548462,"http://www.zditm.szczecin.pl/s11611",,,
11612,"11612","Plac Grunwaldzki 12","",53.432733,14.547616,"http://www.zditm.szczecin.pl/s11612",,,
11621,"11621","Plac Grunwaldzki 21","",53.433373,14.547191,"http://www.zditm.szczecin.pl/s11621",,,
11622,"11622","Plac Grunwaldzki 22","",53.433581,14.547411,"http://www.zditm.szczecin.pl/s11622",,,
11623,"11623","Plac Grunwaldzki 23","",53.433344,14.547974,"http://www.zditm.szczecin.pl/s11623",,,
11631,"11631","Plac Grunwaldzki 31","",53.432256,14.547566,"http://www.zditm.szczecin.pl/s11631",,,
11711,"11711","Plac Szarych Szeregów 11","",53.433130,14.541488,"http://www.zditm.szczecin.pl/s11711",,,
11712,"11712","Plac Szarych Szeregów 12","",53.433050,14.541295,"http://www.zditm.szczecin.pl/s11712",,,
11713,"11713","Plac Szarych Szeregów 13","",53.433005,14.541547,"http://www.zditm.szczecin.pl/s11713",,,
11714,"11714","Plac Szarych Szeregów 14","",53.432919,14.541789,"http://www.zditm.szczecin.pl/s11714",,,
11721,"11721","Plac Szarych Szeregów 21","",53.432379,14.540871,"http://www.zditm.szczecin.pl/s11721",,,
11722,"11722","Plac Szarych Szeregów 22","",53.432363,14.540694,"http://www.zditm.szczecin.pl/s11722",,,
11811,"11811","Piastów 11","",53.432728,14.539437,"http://www.zditm.szczecin.pl/s11811",,,
11812,"11812","Piastów 12","",53.432184,14.539133,"http://www.zditm.szczecin.pl/s11812",,,1
11821,"11821","Piastów 21","",53.431807,14.539549,"http://www.zditm.szczecin.pl/s11821",,,
11831,"11831","Piastów 31","",53.431431,14.538956,"http://www.zditm.szczecin.pl/s11831",,,
11832,"11832","Piastów 32","",53.431609,14.538871,"http://www.zditm.szczecin.pl/s11832",,,1
11841,"11841","Piastów 41","",53.432008,14.538313,"http://www.zditm.szczecin.pl/s11841",,,
11911,"11911","Bohaterów Warszawy 11","",53.433756,14.532519,"http://www.zditm.szczecin.pl/s11911",,,
11912,"11912","Bohaterów Warszawy 12","",53.433521,14.532694,"http://www.zditm.szczecin.pl/s11912",,,1
11921,"11921","Bohaterów Warszawy 21","",53.433069,14.533324,"http://www.zditm.szczecin.pl/s11921",,,
11922,"11922","Bohaterów Warszawy 22","",53.432977,14.533801,"http://www.zditm.szczecin.pl/s11922",,,
11923,"11923","Bohaterów Warszawy 23","",53.432978,14.533581,"http://www.zditm.szczecin.pl/s11923",,,
11931,"11931","Bohaterów Warszawy 31","",53.432632,14.532858,"http://www.zditm.szczecin.pl/s11931",,,
11932,"11932","Bohaterów Warszawy 32","",53.432855,14.532763,"http://www.zditm.szczecin.pl/s11932",,,1
12011,"12011","Wawrzyniaka 11","",53.436137,14.532455,"http://www.zditm.szczecin.pl/s12011",,,
12012,"12012","Wawrzyniaka 12","",53.436342,14.532294,"http://www.zditm.szczecin.pl/s12012",,,
12013,"12013","Wawrzyniaka 13","",53.436165,14.532245,"http://www.zditm.szczecin.pl/s12013",,,
12014,"12014","Wawrzyniaka 14","",53.436320,14.532101,"http://www.zditm.szczecin.pl/s12014",,,
12111,"12111","Plac Gałczyńskiego 11","",53.439279,14.530813,"http://www.zditm.szczecin.pl/s12111",,,1
12112,"12112","Plac Gałczyńskiego 12","",53.439355,14.530878,"http://www.zditm.szczecin.pl/s12112",,,1
12211,"12211","Piotra Skargi 11","",53.440228,14.534450,"http://www.zditm.szczecin.pl/s12211",,,
12212,"12212","Piotra Skargi 12","",53.440100,14.534209,"http://www.zditm.szczecin.pl/s12212",,,
12221,"12221","Piotra Skargi 21","",53.439541,14.533957,"http://www.zditm.szczecin.pl/s12221",,,
12222,"12222","Piotra Skargi 22","",53.439569,14.533662,"http://www.zditm.szczecin.pl/s12222",,,
12223,"12223","Piotra Skargi 23","",53.439201,14.534234,"http://www.zditm.szczecin.pl/s12223",,,
12224,"12224","Piotra Skargi 24","",53.439458,14.533603,"http://www.zditm.szczecin.pl/s12224",,,
12311,"12311","Felczaka 11","",53.436179,14.537937,"http://www.zditm.szczecin.pl/s12311",,,
12312,"12312","Felczaka 12","",53.436249,14.537937,"http://www.zditm.szczecin.pl/s12312",,,
12313,"12313","Felczaka 13","",53.436236,14.538082,"http://www.zditm.szczecin.pl/s12313",,,
12321,"12321","Felczaka 21","",53.435668,14.538179,"http://www.zditm.szczecin.pl/s12321",,,
12411,"12411","Plac Zgody 11","",53.429260,14.543066,"http://www.zditm.szczecin.pl/s12411",,,
12412,"12412","Plac Zgody 12","",53.429213,14.543328,"http://www.zditm.szczecin.pl/s12412",,,
12511,"12511","Urząd Miasta 11","",53.437428,14.542867,"http://www.zditm.szczecin.pl/s12511",,,1
12611,"12611","Jasne Błonia 11","",53.441659,14.538677,"http://www.zditm.szczecin.pl/s12611",,,
12612,"12612","Jasne Błonia 12","",53.441872,14.539424,"http://www.zditm.szczecin.pl/s12612",,,
12701,"12701","Kołłątaja 01","",53.444158,14.547733,"http://www.zditm.szczecin.pl/s12701",,,
12711,"12711","Kołłątaja 11","",53.443877,14.548226,"http://www.zditm.szczecin.pl/s12711",,1271,
12712,"12712","Kołłątaja 12","",53.443838,14.548183,"http://www.zditm.szczecin.pl/s12712",,1271,
12713,"12713","Kołłątaja 13","",53.443797,14.548178,"http://www.zditm.szczecin.pl/s12713",,1271,
12714,"12714","Kołłątaja 14","",53.443749,14.548183,"http://www.zditm.szczecin.pl/s12714",,1271,
12715,"12715","Kołłątaja 15","",53.443704,14.548151,"http://www.zditm.szczecin.pl/s12715",,1271,
12721,"12721","Kołłątaja 21","",53.442953,14.549096,"http://www.zditm.szczecin.pl/s12721",,,
12722,"12722","Kołłątaja 22","",53.443011,14.548575,"http://www.zditm.szczecin.pl/s12722",,,
12731,"12731","Kołłątaja 31","",53.442832,14.547427,"http://www.zditm.szczecin.pl/s12731",,,
12732,"12732","Kołłątaja 32","",53.442637,14.547523,"http://www.zditm.szczecin.pl/s12732",,,
12811,"12811","Odzieżowa 11","",53.439828,14.551533,"http://www.zditm.szczecin.pl/s12811",,,
12812,"12812","Odzieżowa 12","",53.439334,14.552204,"http://www.zditm.szczecin.pl/s12812",,,
12911,"12911","Rayskiego 11","",53.435671,14.553376,"http://www.zditm.szczecin.pl/s12911",,,
12912,"12912","Rayskiego 12","",53.435358,14.553725,"http://www.zditm.szczecin.pl/s12912",,,
12913,"12913","Rayskiego 13","",53.435610,14.553692,"http://www.zditm.szczecin.pl/s12913",,,
12914,"12914","Rayskiego 14","",53.436152,14.553792,"http://www.zditm.szczecin.pl/s12914",,,
13011,"13011","Malczewskiego 11","",53.434856,14.555415,"http://www.zditm.szczecin.pl/s13011",,,
13111,"13111","Matejki 11","",53.435992,14.560551,"http://www.zditm.szczecin.pl/s13111",,,
13112,"13112","Matejki 12","",53.435827,14.560666,"http://www.zditm.szczecin.pl/s13112",,,
13121,"13121","Matejki 21","",53.435390,14.561240,"http://www.zditm.szczecin.pl/s13121",,,
13122,"13122","Matejki 22","",53.435271,14.560838,"http://www.zditm.szczecin.pl/s13122",,,
13131,"13131","Matejki 31","",53.434910,14.560350,"http://www.zditm.szczecin.pl/s13131",,,2
13132,"13132","Matejki 32","",53.434905,14.560165,"http://www.zditm.szczecin.pl/s13132",,,
13211,"13211","Parkowa 11","",53.435960,14.568604,"http://www.zditm.szczecin.pl/s13211",,,
13221,"13221","Parkowa 21","",53.435521,14.567812,"http://www.zditm.szczecin.pl/s13221",,,
13311,"13311","Dubois 11","",53.438395,14.574592,"http://www.zditm.szczecin.pl/s13311",,,
13312,"13312","Dubois 12","",53.438144,14.574694,"http://www.zditm.szczecin.pl/s13312",,,
13321,"13321","Dubois 21","",53.437229,14.574144,"http://www.zditm.szczecin.pl/s13321",,,
13322,"13322","Dubois 22","",53.437090,14.573911,"http://www.zditm.szczecin.pl/s13322",,,
13331,"13331","Dubois 31","",53.437721,14.572489,"http://www.zditm.szczecin.pl/s13331",,,
13332,"13332","Dubois 32","",53.437828,14.572720,"http://www.zditm.szczecin.pl/s13332",,,
13411,"13411","Dworzec Morski 11","",53.433335,14.571722,"http://www.zditm.szczecin.pl/s13411",,,
13412,"13412","Dworzec Morski 12","",53.433213,14.571789,"http://www.zditm.szczecin.pl/s13412",,,
13413,"13413","Dworzec Morski 13","",53.432873,14.571376,"http://www.zditm.szczecin.pl/s13413",,,
13414,"13414","Dworzec Morski 14","",53.432731,14.571384,"http://www.zditm.szczecin.pl/s13414",,,
13511,"13511","Wały Chrobrego 11","",53.430084,14.567297,"http://www.zditm.szczecin.pl/s13511",,,
13512,"13512","Wały Chrobrego 12","",53.430327,14.567822,"http://www.zditm.szczecin.pl/s13512",,,
13513,"13513","Wały Chrobrego 13","",53.430087,14.567530,"http://www.zditm.szczecin.pl/s13513",,,
13514,"13514","Wały Chrobrego 14","",53.430497,14.568251,"http://www.zditm.szczecin.pl/s13514",,,
13611,"13611","Admiralska nż 11","na żądanie",53.431836,14.567259,"http://www.zditm.szczecin.pl/s13611",,,
13711,"13711","Urząd Wojewódzki 11","",53.430529,14.565274,"http://www.zditm.szczecin.pl/s13711",,,
13811,"13811","Teatr Współczesny 11","",53.430294,14.565403,"http://www.zditm.szczecin.pl/s13811",,,
13911,"13911","Starzyńskiego 11","",53.429931,14.559845,"http://www.zditm.szczecin.pl/s13911",,,
13912,"13912","Starzyńskiego 12","",53.429627,14.559776,"http://www.zditm.szczecin.pl/s13912",,,
14011,"14011","Emilii Plater 11","",53.438812,14.573391,"http://www.zditm.szczecin.pl/s14011",,,
14012,"14012","Emilii Plater 12","",53.438954,14.572634,"http://www.zditm.szczecin.pl/s14012",,,
14111,"14111","Sczanieckiej 11","",53.440999,14.563501,"http://www.zditm.szczecin.pl/s14111",,,
14112,"14112","Sczanieckiej 12","",53.440234,14.563472,"http://www.zditm.szczecin.pl/s14112",,,
14121,"14121","Sczanieckiej 21","",53.439764,14.562131,"http://www.zditm.szczecin.pl/s14121",,,
14122,"14122","Sczanieckiej 22","",53.439847,14.561589,"http://www.zditm.szczecin.pl/s14122",,,
14211,"14211","Ofiar Oświęcimia 11","",53.441087,14.555051,"http://www.zditm.szczecin.pl/s14211",,,
14221,"14221","Ofiar Oświęcimia 21","",53.441790,14.553349,"http://www.zditm.szczecin.pl/s14221",,,
14311,"14311","Niemcewicza 11","",53.446046,14.549444,"http://www.zditm.szczecin.pl/s14311",,,0
14321,"14321","Niemcewicza 21","",53.445782,14.550012,"http://www.zditm.szczecin.pl/s14321",,,
14323,"14323","Niemcewicza 23","",53.445947,14.550517,"http://www.zditm.szczecin.pl/s14323",,,0
14511,"14511","Krasińskiego 11","",53.444557,14.544578,"http://www.zditm.szczecin.pl/s14511",,,
14512,"14512","Krasińskiego 12","",53.444996,14.544753,"http://www.zditm.szczecin.pl/s14512",,,
14611,"14611","Boguchwały 11","",53.447225,14.552721,"http://www.zditm.szczecin.pl/s14611",,,
14631,"14631","Boguchwały 31","",53.446690,14.553344,"http://www.zditm.szczecin.pl/s14631",,,
14632,"14632","Boguchwały 32","",53.446340,14.553633,"http://www.zditm.szczecin.pl/s14632",,,
14710,"14710","Dworzec Niebuszewo 10","",53.448206,14.552882,"http://www.zditm.szczecin.pl/s14710",,,
14711,"14711","Dworzec Niebuszewo 11","",53.448174,14.552722,"http://www.zditm.szczecin.pl/s14711",,,
14811,"14811","Orzeszkowej nż 11","na żądanie",53.447854,14.550029,"http://www.zditm.szczecin.pl/s14811",,,
14911,"14911","Krasińskiego Wiadukt 11","",53.451560,14.544144,"http://www.zditm.szczecin.pl/s14911",,,
14912,"14912","Krasińskiego Wiadukt 12","",53.450835,14.544417,"http://www.zditm.szczecin.pl/s14912",,,
14921,"14921","Krasińskiego Wiadukt 21","",53.450624,14.543457,"http://www.zditm.szczecin.pl/s14921",,,
14922,"14922","Krasińskiego Wiadukt 22","",53.450688,14.543430,"http://www.zditm.szczecin.pl/s14922",,,
15022,"15022","Łabędzia 22","",53.454662,14.545364,"http://www.zditm.szczecin.pl/s15022",,,
15031,"15031","Łabędzia 31","",53.453627,14.544256,"http://www.zditm.szczecin.pl/s15031",,,
15032,"15032","Łabędzia 32","",53.454279,14.543811,"http://www.zditm.szczecin.pl/s15032",,,
15041,"15041","Łabędzia 41","",53.455092,14.542650,"http://www.zditm.szczecin.pl/s15041",,,
15111,"15111","Łucznicza 11","",53.453373,14.550446,"http://www.zditm.szczecin.pl/s15111",,,
15112,"15112","Łucznicza 12","",53.453289,14.550517,"http://www.zditm.szczecin.pl/s15112",,,
15211,"15211","Przyjaciół Żołnierza 11","",53.454422,14.553242,"http://www.zditm.szczecin.pl/s15211",,,
15212,"15212","Przyjaciół Żołnierza 12","",53.454202,14.554647,"http://www.zditm.szczecin.pl/s15212",,,
15311,"15311","Pasterska 11","",53.453621,14.561479,"http://www.zditm.szczecin.pl/s15311",,,
15312,"15312","Pasterska 12","",53.453565,14.560737,"http://www.zditm.szczecin.pl/s15312",,,
15411,"15411","Komuny Paryskiej 11","",53.453890,14.565383,"http://www.zditm.szczecin.pl/s15411",,,
15421,"15421","Komuny Paryskiej 21","",53.452377,14.564024,"http://www.zditm.szczecin.pl/s15421",,,
15511,"15511","Golisza 11","",53.452758,14.567184,"http://www.zditm.szczecin.pl/s15511",,,
15512,"15512","Golisza 12","",53.452726,14.567039,"http://www.zditm.szczecin.pl/s15512",,,
15611,"15611","Rugiańska 11","",53.451726,14.569405,"http://www.zditm.szczecin.pl/s15611",,,
15621,"15621","Rugiańska 21","",53.450963,14.570016,"http://www.zditm.szczecin.pl/s15621",,,
15622,"15622","Rugiańska 22","",53.450889,14.569888,"http://www.zditm.szczecin.pl/s15622",,,
15711,"15711","Rugiańska 71 11","",53.449774,14.575070,"http://www.zditm.szczecin.pl/s15711",,,
15712,"15712","Rugiańska 71 12","",53.449752,14.574973,"http://www.zditm.szczecin.pl/s15712",,,
15811,"15811","Dobromiry nż 11","na żądanie",53.449199,14.577553,"http://www.zditm.szczecin.pl/s15811",,,
15821,"15821","Dobromiry 21","",53.448988,14.578358,"http://www.zditm.szczecin.pl/s15821",,,
15822,"15822","Dobromiry 22","",53.448985,14.578637,"http://www.zditm.szczecin.pl/s15822",,,
15831,"15831","Dobromiry 31","",53.448835,14.579458,"http://www.zditm.szczecin.pl/s15831",,,
15911,"15911","Stocznia Remontowa nż 11","na żądanie",53.450185,14.583020,"http://www.zditm.szczecin.pl/s15911",,,
16001,"16001","Ludowa 01","",53.452529,14.583237,"http://www.zditm.szczecin.pl/s16001",,,
16011,"16011","Ludowa 11","",53.451937,14.582950,"http://www.zditm.szczecin.pl/s16011",,,
16012,"16012","Ludowa 12","",53.452179,14.583364,"http://www.zditm.szczecin.pl/s16012",,,
16022,"16022","Ludowa 22","",53.451768,14.583100,"http://www.zditm.szczecin.pl/s16022",,,
16031,"16031","Ludowa 31","",53.452058,14.583508,"http://www.zditm.szczecin.pl/s16031",,,
16032,"16032","Ludowa 32","",53.452039,14.583594,"http://www.zditm.szczecin.pl/s16032",,,
16033,"16033","Ludowa 33","",53.452017,14.583680,"http://www.zditm.szczecin.pl/s16033",,,
16041,"16041","Ludowa 41","",53.451959,14.583765,"http://www.zditm.szczecin.pl/s16041",,,
16111,"16111","Konarskiego 11","",53.452825,14.584141,"http://www.zditm.szczecin.pl/s16111",,,
16211,"16211","Lubeckiego Wiadukt nż 11","na żądanie",53.451621,14.578691,"http://www.zditm.szczecin.pl/s16211",,,
16311,"16311","Lubeckiego 11","",53.447982,14.574850,"http://www.zditm.szczecin.pl/s16311",,,
16312,"16312","Lubeckiego 12","",53.447937,14.575036,"http://www.zditm.szczecin.pl/s16312",,,
16412,"16412","Stocznia Szczecińska 12","",53.442055,14.574399,"http://www.zditm.szczecin.pl/s16412",,,
16413,"16413","Stocznia Szczecińska 13","",53.441991,14.574421,"http://www.zditm.szczecin.pl/s16413",,,
16421,"16421","Stocznia Szczecińska 21","",53.441835,14.574383,"http://www.zditm.szczecin.pl/s16421",,,
16431,"16431","Stocznia Szczecińska 31","",53.441792,14.574775,"http://www.zditm.szczecin.pl/s16431",,,
16432,"16432","Stocznia Szczecińska 32","",53.441720,14.574627,"http://www.zditm.szczecin.pl/s16432",,,
16511,"16511","Antosiewicza 11","",53.441245,14.575813,"http://www.zditm.szczecin.pl/s16511",,,
16611,"16611","Wilcza Wiadukt 11","",53.446091,14.565054,"http://www.zditm.szczecin.pl/s16611",,,
16612,"16612","Wilcza Wiadukt 12","",53.446425,14.565280,"http://www.zditm.szczecin.pl/s16612",,,
16711,"16711","1 Maja 11","",53.443154,14.564207,"http://www.zditm.szczecin.pl/s16711",,,
16721,"16721","1 Maja 21","",53.442359,14.566369,"http://www.zditm.szczecin.pl/s16721",,,
16731,"16731","1 Maja 31","",53.442407,14.562973,"http://www.zditm.szczecin.pl/s16731",,,
16811,"16811","Cyryla i Metodego 11","",53.444094,14.559459,"http://www.zditm.szczecin.pl/s16811",,,
16812,"16812","Cyryla i Metodego 12","",53.444375,14.558188,"http://www.zditm.szczecin.pl/s16812",,,
17011,"17011","Plac Matki Teresy 11","",53.439454,14.565977,"http://www.zditm.szczecin.pl/s17011",,,
17012,"17012","Plac Matki Teresy 12","",53.439426,14.565795,"http://www.zditm.szczecin.pl/s17012",,,
17111,"17111","Jarowita nż 11","na żądanie",53.428141,14.563295,"http://www.zditm.szczecin.pl/s17111",,,
17211,"17211","1 Maja Business Park 11","",53.442876,14.571889,"http://www.zditm.szczecin.pl/s17211",,,
17212,"17212","1 Maja Business Park 12","",53.442825,14.571750,"http://www.zditm.szczecin.pl/s17212",,,
17412,"17412","Bulwar Piastowski nż 12","na żądanie",53.426420,14.564510,"http://www.zditm.szczecin.pl/s17412",,,
17413,"17413","Bulwar Piastowski nż 13","na żądanie",53.426426,14.564620,"http://www.zditm.szczecin.pl/s17413",,,
17511,"17511","Jagiellońska Szpital 11","",53.434536,14.524955,"http://www.zditm.szczecin.pl/s17511",,,
17512,"17512","Jagiellońska Szpital 12","",53.434498,14.524832,"http://www.zditm.szczecin.pl/s17512",,,
17611,"17611","Strzelecka nż 11","na żądanie",53.433961,14.529000,"http://www.zditm.szczecin.pl/s17611",,,
17612,"17612","Strzelecka nż 12","na żądanie",53.434006,14.528533,"http://www.zditm.szczecin.pl/s17612",,,
17741,"17741","Plac Zamenhofa 41","",53.431162,14.544824,"http://www.zditm.szczecin.pl/s17741",,,
17851,"17851","Plac Lotników 51","",53.430017,14.550436,"http://www.zditm.szczecin.pl/s17851",,,
17921,"17921","Św. Wojciecha 21","",53.428991,14.549546,"http://www.zditm.szczecin.pl/s17921",,,
18021,"18021","Wąska Floating Arena 21","",53.439384,14.547891,"http://www.zditm.szczecin.pl/s18021",,,
18031,"18031","Wąska Floating Arena 31","",53.438528,14.547094,"http://www.zditm.szczecin.pl/s18031",,,
18121,"18121","Św. Jana Pawła II 21","",53.436115,14.545474,"http://www.zditm.szczecin.pl/s18121",,,
18141,"18141","Św. Jana Pawła II 41","",53.435728,14.544141,"http://www.zditm.szczecin.pl/s18141",,,
18211,"18211","Staw Brodowski 11","",53.450583,14.562962,"http://www.zditm.szczecin.pl/s18211",,,
18221,"18221","Staw Brodowski 21","",53.448544,14.561750,"http://www.zditm.szczecin.pl/s18221",,,
20111,"20111","Gumieńce 11","",53.423279,14.490320,"http://www.zditm.szczecin.pl/s20111",,,1
20121,"20121","Gumieńce 21","",53.423280,14.490632,"http://www.zditm.szczecin.pl/s20121",,,
20131,"20131","Gumieńce 31","",53.422771,14.491047,"http://www.zditm.szczecin.pl/s20131",,,
20150,"20150","Gumieńce 50","",53.424425,14.490234,"http://www.zditm.szczecin.pl/s20150",,,
20151,"20151","Gumieńce 51","",53.424492,14.490830,"http://www.zditm.szczecin.pl/s20151",,,
20211,"20211","Kwiatowa 11","",53.421364,14.492809,"http://www.zditm.szczecin.pl/s20211",,,
20212,"20212","Kwiatowa 12","",53.421483,14.493777,"http://www.zditm.szczecin.pl/s20212",,,
20221,"20221","Kwiatowa 21","",53.421166,14.491492,"http://www.zditm.szczecin.pl/s20221",,,
20222,"20222","Kwiatowa 22","",53.421169,14.491272,"http://www.zditm.szczecin.pl/s20222",,,
20292,"20292","Kwiatowa 92","",53.420774,14.492022,"http://www.zditm.szczecin.pl/s20292",,,
20311,"20311","Kręta 11","",53.422681,14.496062,"http://www.zditm.szczecin.pl/s20311",,,
20312,"20312","Kręta 12","",53.422649,14.495907,"http://www.zditm.szczecin.pl/s20312",,,1
20411,"20411","Ku Słońcu 11","",53.422854,14.500569,"http://www.zditm.szczecin.pl/s20411",,,
20421,"20421","Ku Słońcu 21","",53.421543,14.501153,"http://www.zditm.szczecin.pl/s20421",,,
20422,"20422","Ku Słońcu 22","",53.421444,14.501078,"http://www.zditm.szczecin.pl/s20422",,,1
20423,"20423","Ku Słońcu 23","",53.421403,14.501341,"http://www.zditm.szczecin.pl/s20423",,,1
20424,"20424","Ku Słońcu 24","",53.421234,14.502381,"http://www.zditm.szczecin.pl/s20424",,,
20431,"20431","Ku Słońcu 31","",53.420840,14.500150,"http://www.zditm.szczecin.pl/s20431",,,
20441,"20441","Ku Słońcu 41","",53.421045,14.497527,"http://www.zditm.szczecin.pl/s20441",,,
20511,"20511","Szkoła Salezjańska 11","",53.421355,14.505193,"http://www.zditm.szczecin.pl/s20511",,,
20512,"20512","Szkoła Salezjańska 12","",53.421278,14.504927,"http://www.zditm.szczecin.pl/s20512",,,1
20513,"20513","Szkoła Salezjańska 13","",53.421241,14.505064,"http://www.zditm.szczecin.pl/s20513",,,1
20514,"20514","Szkoła Salezjańska 14","",53.421144,14.505284,"http://www.zditm.szczecin.pl/s20514",,,
20611,"20611","Karola Miarki 11","",53.421083,14.514886,"http://www.zditm.szczecin.pl/s20611",,,
20621,"20621","Karola Miarki 21","",53.420693,14.515723,"http://www.zditm.szczecin.pl/s20621",,,
20622,"20622","Karola Miarki 22","",53.420588,14.515415,"http://www.zditm.szczecin.pl/s20622",,,
20631,"20631","Karola Miarki 31","",53.420498,14.513931,"http://www.zditm.szczecin.pl/s20631",,,
20632,"20632","Karola Miarki 32","",53.420568,14.514425,"http://www.zditm.szczecin.pl/s20632",,,
20711,"20711","Cmentarz Centralny 11","",53.421096,14.523770,"http://www.zditm.szczecin.pl/s20711",,,
20712,"20712","Cmentarz Centralny 12","",53.421022,14.523882,"http://www.zditm.szczecin.pl/s20712",,,1
20713,"20713","Cmentarz Centralny 13","",53.420992,14.523952,"http://www.zditm.szczecin.pl/s20713",,,1
20714,"20714","Cmentarz Centralny 14","",53.420869,14.523432,"http://www.zditm.szczecin.pl/s20714",,,
20811,"20811","Osiedle Akademickie 11","",53.421831,14.528442,"http://www.zditm.szczecin.pl/s20811",,,
20812,"20812","Osiedle Akademickie 12","",53.421715,14.528400,"http://www.zditm.szczecin.pl/s20812",,,1
20813,"20813","Osiedle Akademickie 13","",53.421787,14.528657,"http://www.zditm.szczecin.pl/s20813",,,1
20814,"20814","Osiedle Akademickie 14","",53.421738,14.528777,"http://www.zditm.szczecin.pl/s20814",,,
20911,"20911","Sikorskiego 11","",53.424113,14.532219,"http://www.zditm.szczecin.pl/s20911",,,
20912,"20912","Sikorskiego 12","",53.423969,14.532192,"http://www.zditm.szczecin.pl/s20912",,,
20913,"20913","Sikorskiego 13","",53.424103,14.532455,"http://www.zditm.szczecin.pl/s20913",,,
20914,"20914","Sikorskiego 14","",53.424145,14.532707,"http://www.zditm.szczecin.pl/s20914",,,
21011,"21011","Narutowicza 11","",53.423298,14.535306,"http://www.zditm.szczecin.pl/s21011",,,
21012,"21012","Narutowicza 12","",53.422825,14.535277,"http://www.zditm.szczecin.pl/s21012",,,1
21013,"21013","Narutowicza 13","",53.422912,14.535389,"http://www.zditm.szczecin.pl/s21013",,,1
21014,"21014","Narutowicza 14","",53.422999,14.535622,"http://www.zditm.szczecin.pl/s21014",,,
21111,"21111","Szwoleżerów 11","",53.419539,14.533375,"http://www.zditm.szczecin.pl/s21111",,,
21112,"21112","Szwoleżerów 12","",53.419865,14.533716,"http://www.zditm.szczecin.pl/s21112",,,1
21113,"21113","Szwoleżerów 13","",53.419929,14.533844,"http://www.zditm.szczecin.pl/s21113",,,1
21114,"21114","Szwoleżerów 14","",53.419822,14.533949,"http://www.zditm.szczecin.pl/s21114",,,
21211,"21211","Plac Szyrockiego (Dąbrowskiego) 11","",53.416051,14.532090,"http://www.zditm.szczecin.pl/s21211",,,
21212,"21212","Plac Szyrockiego (Dąbrowskiego) 12","",53.416187,14.531924,"http://www.zditm.szczecin.pl/s21212",,,
21213,"21213","Plac Szyrockiego (Dąbrowskiego) 13","",53.415984,14.531913,"http://www.zditm.szczecin.pl/s21213",,,
21214,"21214","Plac Szyrockiego (Dąbrowskiego) 14","",53.415306,14.531967,"http://www.zditm.szczecin.pl/s21214",,,
21221,"21221","Plac Szyrockiego (Dąbrowskiego) 21","",53.415741,14.530754,"http://www.zditm.szczecin.pl/s21221",,,
21222,"21222","Plac Szyrockiego (Dąbrowskiego) 22","",53.416009,14.530596,"http://www.zditm.szczecin.pl/s21222",,,
21311,"21311","Starkiewicza 11","",53.410149,14.530228,"http://www.zditm.szczecin.pl/s21311",,,
21312,"21312","Starkiewicza 12","",53.410145,14.530357,"http://www.zditm.szczecin.pl/s21312",,,
21313,"21313","Starkiewicza 13","",53.410158,14.530432,"http://www.zditm.szczecin.pl/s21313",,,
21314,"21314","Starkiewicza 14","",53.410475,14.530674,"http://www.zditm.szczecin.pl/s21314",,,
21411,"21411","Szpitalna 11","",53.406676,14.528646,"http://www.zditm.szczecin.pl/s21411",,,
21412,"21412","Szpitalna 12","",53.406903,14.528823,"http://www.zditm.szczecin.pl/s21412",,,
21511,"21511","Frysztacka 11","",53.404904,14.527879,"http://www.zditm.szczecin.pl/s21511",,,
21521,"21521","Frysztacka 21","",53.404277,14.527659,"http://www.zditm.szczecin.pl/s21521",,,
21522,"21522","Frysztacka 22","",53.404060,14.527434,"http://www.zditm.szczecin.pl/s21522",,,
21523,"21523","Frysztacka 23","",53.403817,14.527418,"http://www.zditm.szczecin.pl/s21523",,,
21611,"21611","Pomorzany 11","",53.402270,14.527715,"http://www.zditm.szczecin.pl/s21611",,,
21621,"21621","Pomorzany 21","",53.401592,14.527387,"http://www.zditm.szczecin.pl/s21621",,,
21622,"21622","Pomorzany 22","",53.401641,14.527385,"http://www.zditm.szczecin.pl/s21622",,,
21623,"21623","Pomorzany 23","",53.401690,14.527407,"http://www.zditm.szczecin.pl/s21623",,,
21631,"21631","Pomorzany 31","",53.401853,14.526559,"http://www.zditm.szczecin.pl/s21631",,,
21632,"21632","Pomorzany 32","",53.402210,14.526620,"http://www.zditm.szczecin.pl/s21632",,,
21711,"21711","Budziszyńska 11","",53.397282,14.524022,"http://www.zditm.szczecin.pl/s21711",,,
21811,"21811","Inowrocławska nż 11","na żądanie",53.395942,14.522273,"http://www.zditm.szczecin.pl/s21811",,,
21911,"21911","Pomorzany Dobrzyńska 11","",53.398440,14.524373,"http://www.zditm.szczecin.pl/s21911",,,
22011,"22011","Smolańska 11","",53.403167,14.532884,"http://www.zditm.szczecin.pl/s22011",,,
22012,"22012","Smolańska 12","",53.402342,14.531897,"http://www.zditm.szczecin.pl/s22012",,,
22013,"22013","Smolańska 13","",53.402241,14.531460,"http://www.zditm.szczecin.pl/s22013",,,
22014,"22014","Smolańska 14","",53.402330,14.531435,"http://www.zditm.szczecin.pl/s22014",,,
22111,"22111","Św. Józefa 11","",53.407396,14.535921,"http://www.zditm.szczecin.pl/s22111",,,
22112,"22112","Św. Józefa 12","",53.407505,14.536052,"http://www.zditm.szczecin.pl/s22112",,,
22211,"22211","Tama Pomorzańska 11","",53.409135,14.538779,"http://www.zditm.szczecin.pl/s22211",,,
22212,"22212","Tama Pomorzańska 12","",53.409394,14.539337,"http://www.zditm.szczecin.pl/s22212",,,
22311,"22311","Nadodrzańska 11","",53.411976,14.543487,"http://www.zditm.szczecin.pl/s22311",,,
22312,"22312","Nadodrzańska 12","",53.412054,14.543688,"http://www.zditm.szczecin.pl/s22312",,,
22411,"22411","Kolumba 11","",53.414272,14.545944,"http://www.zditm.szczecin.pl/s22411",,,
22412,"22412","Kolumba 12","",53.414769,14.546598,"http://www.zditm.szczecin.pl/s22412",,,
22511,"22511","Dworzec Główny 11","",53.419350,14.552569,"http://www.zditm.szczecin.pl/s22511",,,
22512,"22512","Dworzec Główny 12","",53.419000,14.551957,"http://www.zditm.szczecin.pl/s22512",,,
22514,"22514","Dworzec Główny 14","",53.419075,14.552469,"http://www.zditm.szczecin.pl/s22514",,,
22515,"22515","Dworzec Główny 15","",53.418690,14.551866,"http://www.zditm.szczecin.pl/s22515",,,
22611,"22611","Plac Tobrucki 11","",53.420907,14.553773,"http://www.zditm.szczecin.pl/s22611",,,
22612,"22612","Plac Tobrucki 12","",53.421246,14.553328,"http://www.zditm.szczecin.pl/s22612",,,
22711,"22711","Dworcowa 11","",53.421288,14.556230,"http://www.zditm.szczecin.pl/s22711",,,
22721,"22721","Dworcowa nż 21","na żądanie",53.420375,14.555481,"http://www.zditm.szczecin.pl/s22721",,,
22722,"22722","Dworcowa 22","",53.420533,14.555516,"http://www.zditm.szczecin.pl/s22722",,,
22723,"22723","Dworcowa 23","",53.420562,14.555307,"http://www.zditm.szczecin.pl/s22723",,,
22731,"22731","Dworcowa 31","",53.421374,14.555284,"http://www.zditm.szczecin.pl/s22731",,,
22811,"22811","Plac Zawiszy 11","",53.420901,14.549143,"http://www.zditm.szczecin.pl/s22811",,,
22812,"22812","Plac Zawiszy 12","",53.420722,14.549251,"http://www.zditm.szczecin.pl/s22812",,,1
22813,"22813","Plac Zawiszy 13","",53.420878,14.549377,"http://www.zditm.szczecin.pl/s22813",,,1
22814,"22814","Plac Zawiszy 14","",53.420891,14.549530,"http://www.zditm.szczecin.pl/s22814",,,
22921,"22921","Owocowa Dworzec 21","",53.419242,14.550248,"http://www.zditm.szczecin.pl/s22921",,,
22922,"22922","Owocowa Dworzec 22","",53.419676,14.551300,"http://www.zditm.szczecin.pl/s22922",,,
22931,"22931","Owocowa Dworzec 31","",53.419050,14.548108,"http://www.zditm.szczecin.pl/s22931",,,
22932,"22932","Owocowa Dworzec 32","",53.419098,14.548097,"http://www.zditm.szczecin.pl/s22932",,,
23011,"23011","Sowińskiego 11","",53.418158,14.544297,"http://www.zditm.szczecin.pl/s23011",,,1
23012,"23012","Sowińskiego 12","",53.418167,14.544353,"http://www.zditm.szczecin.pl/s23012",,,1
23111,"23111","Potulicka 11","",53.415004,14.543044,"http://www.zditm.szczecin.pl/s23111",,,1
23112,"23112","Potulicka 12","",53.415117,14.543157,"http://www.zditm.szczecin.pl/s23112",,,
23121,"23121","Potulicka 21","",53.415221,14.543422,"http://www.zditm.szczecin.pl/s23121",,,1
23122,"23122","Potulicka 22","",53.415236,14.543495,"http://www.zditm.szczecin.pl/s23122",,,1
23123,"23123","Potulicka 23","",53.415248,14.543567,"http://www.zditm.szczecin.pl/s23123",,,1
23211,"23211","Kusocińskiego 11","",53.414516,14.537481,"http://www.zditm.szczecin.pl/s23211",,,
23212,"23212","Kusocińskiego 12","",53.414564,14.537519,"http://www.zditm.szczecin.pl/s23212",,,
23311,"23311","Dunikowskiego 11","",53.408195,14.526197,"http://www.zditm.szczecin.pl/s23311",,,
23312,"23312","Dunikowskiego 12","",53.408099,14.526371,"http://www.zditm.szczecin.pl/s23312",,,
23411,"23411","Mieszka I 11","",53.412595,14.522466,"http://www.zditm.szczecin.pl/s23411",,,
23412,"23412","Mieszka I 12","",53.412521,14.522708,"http://www.zditm.szczecin.pl/s23412",,,
23511,"23511","Białowieska 11","",53.409333,14.515112,"http://www.zditm.szczecin.pl/s23511",,,
23521,"23521","Białowieska 21","",53.408842,14.512968,"http://www.zditm.szczecin.pl/s23521",,,
23611,"23611","Wierzbowa 11","",53.407459,14.505788,"http://www.zditm.szczecin.pl/s23611",,,
23612,"23612","Wierzbowa 12","",53.407686,14.505681,"http://www.zditm.szczecin.pl/s23612",,,
23621,"23621","Wierzbowa 21","",53.406951,14.507564,"http://www.zditm.szczecin.pl/s23621",,,
23631,"23631","Wierzbowa 31","",53.406525,14.505398,"http://www.zditm.szczecin.pl/s23631",,,
23711,"23711","Reda 11","",53.404541,14.501639,"http://www.zditm.szczecin.pl/s23711",,,
23721,"23721","Reda 21","",53.404200,14.502602,"http://www.zditm.szczecin.pl/s23721",,,
23811,"23811","Cukrowa Uniwersytet (Płocka Uniwersytet) 11","",53.402488,14.499300,"http://www.zditm.szczecin.pl/s23811",,,
23812,"23812","Cukrowa Uniwersytet (Płocka Uniwersytet) 12","",53.402326,14.499195,"http://www.zditm.szczecin.pl/s23812",,,
23911,"23911","Cukrowa 11","",53.398124,14.493970,"http://www.zditm.szczecin.pl/s23911",,,
23912,"23912","Cukrowa 12","",53.398204,14.494475,"http://www.zditm.szczecin.pl/s23912",,,
23921,"23921","Cukrowa 21","",53.396979,14.492978,"http://www.zditm.szczecin.pl/s23921",,,
23931,"23931","Cukrowa 31","",53.398330,14.493410,"http://www.zditm.szczecin.pl/s23931",,,
24011,"24011","Kwiatkowskiego 11","",53.395526,14.491406,"http://www.zditm.szczecin.pl/s24011",,,
24111,"24111","Cmentarz Zachodni 11","",53.402959,14.482858,"http://www.zditm.szczecin.pl/s24111",,,
24112,"24112","Cmentarz Zachodni 12","",53.402360,14.483191,"http://www.zditm.szczecin.pl/s24112",,,
24211,"24211","Ogrody ""Malwa"" nż 11","na żądanie",53.404751,14.491725,"http://www.zditm.szczecin.pl/s24211",,,
24212,"24212","Ogrody ""Malwa"" nż 12","na żądanie",53.404714,14.491766,"http://www.zditm.szczecin.pl/s24212",,,
24712,"24712","Radomska 12","",53.399480,14.496696,"http://www.zditm.szczecin.pl/s24712",,,
24812,"24812","Południowa nż 12","na żądanie",53.399486,14.501550,"http://www.zditm.szczecin.pl/s24812",,,
24821,"24821","Południowa nż 21","na żądanie",53.398613,14.500402,"http://www.zditm.szczecin.pl/s24821",,,
25011,"25011","Ogrody ""Górki Ustowskie"" nż 11","na żądanie",53.394076,14.502607,"http://www.zditm.szczecin.pl/s25011",,,
25012,"25012","Ogrody ""Górki Ustowskie"" nż 12","na żądanie",53.394250,14.502816,"http://www.zditm.szczecin.pl/s25012",,,
25111,"25111","Ustowska 11","",53.388633,14.514994,"http://www.zditm.szczecin.pl/s25111",,,
25121,"25121","Ustowska 21","",53.387596,14.515715,"http://www.zditm.szczecin.pl/s25121",,,
25122,"25122","Ustowska 22","",53.387556,14.515360,"http://www.zditm.szczecin.pl/s25122",,,
25131,"25131","Ustowska 31","",53.385988,14.519030,"http://www.zditm.szczecin.pl/s25131",,,
25211,"25211","Potoczna nż 11","na żądanie",53.386252,14.526726,"http://www.zditm.szczecin.pl/s25211",,,
25212,"25212","Potoczna nż 12","na żądanie",53.385710,14.528026,"http://www.zditm.szczecin.pl/s25212",,,
25311,"25311","Braniborska 11","",53.410644,14.503363,"http://www.zditm.szczecin.pl/s25311",,,
25312,"25312","Braniborska 12","",53.409912,14.503777,"http://www.zditm.szczecin.pl/s25312",,,
25411,"25411","Chobolańska 11","",53.413455,14.500434,"http://www.zditm.szczecin.pl/s25411",,,
25412,"25412","Chobolańska 12","",53.413679,14.499657,"http://www.zditm.szczecin.pl/s25412",,,
25511,"25511","Dworska 11","",53.416607,14.498814,"http://www.zditm.szczecin.pl/s25511",,,
25512,"25512","Dworska 12","",53.416937,14.499045,"http://www.zditm.szczecin.pl/s25512",,,
25711,"25711","Wrocławska 11","",53.419750,14.487651,"http://www.zditm.szczecin.pl/s25711",,,
25712,"25712","Wrocławska 12","",53.419331,14.488332,"http://www.zditm.szczecin.pl/s25712",,,
25811,"25811","Wrocławska - Rubież 11","",53.414951,14.494255,"http://www.zditm.szczecin.pl/s25811",,,
25812,"25812","Wrocławska - Rubież 12","",53.414725,14.494488,"http://www.zditm.szczecin.pl/s25812",,,
25911,"25911","Poronińska 11","",53.411708,14.496178,"http://www.zditm.szczecin.pl/s25911",,,
25912,"25912","Poronińska 12","",53.412454,14.495912,"http://www.zditm.szczecin.pl/s25912",,,
26011,"26011","Zielona 11","",53.408687,14.495506,"http://www.zditm.szczecin.pl/s26011",,,
26012,"26012","Zielona 12","",53.407520,14.495328,"http://www.zditm.szczecin.pl/s26012",,,
26111,"26111","Bronowicka 11","",53.404917,14.497165,"http://www.zditm.szczecin.pl/s26111",,,
26112,"26112","Bronowicka 12","",53.405361,14.495639,"http://www.zditm.szczecin.pl/s26112",,,
26211,"26211","Piękna 11","",53.421013,14.512424,"http://www.zditm.szczecin.pl/s26211",,,
26212,"26212","Piękna 12","",53.423202,14.512456,"http://www.zditm.szczecin.pl/s26212",,,
26311,"26311","Świerczewska 11","",53.423495,14.514932,"http://www.zditm.szczecin.pl/s26311",,,
26411,"26411","Ogrodnictwo nż 11","na żądanie",53.392721,14.495944,"http://www.zditm.szczecin.pl/s26411",,,
26611,"26611","Warzymice Osiedle Promyk 11","",53.391665,14.484599,"http://www.zditm.szczecin.pl/s26611",,,
26612,"26612","Warzymice Osiedle Promyk 12","",53.392030,14.483526,"http://www.zditm.szczecin.pl/s26612",,,0
27211,"27211","Tama Pomorzańska 5 nż 11","na żądanie",53.404727,14.537358,"http://www.zditm.szczecin.pl/s27211",,,
27212,"27212","Tama Pomorzańska 5 nż 12","na żądanie",53.405496,14.538066,"http://www.zditm.szczecin.pl/s27212",,,
27311,"27311","Szczawiowa Oczyszczalnia nż 11","na żądanie",53.400473,14.533444,"http://www.zditm.szczecin.pl/s27311",,,
27312,"27312","Szczawiowa Oczyszczalnia nż 12","na żądanie",53.400441,14.533495,"http://www.zditm.szczecin.pl/s27312",,,
27411,"27411","Włościańska nż 11","na żądanie",53.396435,14.530985,"http://www.zditm.szczecin.pl/s27411",,,
27412,"27412","Włościańska nż 12","na żądanie",53.396585,14.531178,"http://www.zditm.szczecin.pl/s27412",,,
27511,"27511","Elektrownia Pomorzany 11","",53.392088,14.528517,"http://www.zditm.szczecin.pl/s27511",,,
27512,"27512","Elektrownia Pomorzany 12","",53.392100,14.528592,"http://www.zditm.szczecin.pl/s27512",,,
27521,"27521","Elektrownia Pomorzany 21","",53.391995,14.529097,"http://www.zditm.szczecin.pl/s27521",,,
27611,"27611","Przy Ogrodach nż 11","na żądanie",53.390824,14.517287,"http://www.zditm.szczecin.pl/s27611",,,
27612,"27612","Przy Ogrodach nż 12","na żądanie",53.390752,14.517287,"http://www.zditm.szczecin.pl/s27612",,,
28311,"28311","Polskich Marynarzy 11","",53.427204,14.487447,"http://www.zditm.szczecin.pl/s28311",,,
28411,"28411","Maczka 11","",53.430976,14.482710,"http://www.zditm.szczecin.pl/s28411",,,
28611,"28611","Osiedle Kapitanów 11","",53.431165,14.481101,"http://www.zditm.szczecin.pl/s28611",,,
28711,"28711","Hrubieszowska 11","",53.426769,14.482928,"http://www.zditm.szczecin.pl/s28711",,,
28712,"28712","Hrubieszowska 12","",53.427540,14.482737,"http://www.zditm.szczecin.pl/s28712",,,
28811,"28811","Jagodowa 11","",53.419767,14.484994,"http://www.zditm.szczecin.pl/s28811",,,
28812,"28812","Jagodowa 12","",53.419737,14.485166,"http://www.zditm.szczecin.pl/s28812",,,
28911,"28911","Głogowska 11","",53.419366,14.478811,"http://www.zditm.szczecin.pl/s28911",,,
28921,"28921","Głogowska 21","",53.419565,14.478440,"http://www.zditm.szczecin.pl/s28921",,,
28922,"28922","Głogowska 22","",53.419606,14.478296,"http://www.zditm.szczecin.pl/s28922",,,
29011,"29011","Okulickiego 11","",53.419376,14.475930,"http://www.zditm.szczecin.pl/s29011",,,
29021,"29021","Okulickiego 21","",53.419542,14.474862,"http://www.zditm.szczecin.pl/s29021",,,
29022,"29022","Okulickiego 22","",53.419587,14.474900,"http://www.zditm.szczecin.pl/s29022",,,
30111,"30111","Krzekowo 11","",53.449062,14.488901,"http://www.zditm.szczecin.pl/s30111",,,
30120,"30120","Krzekowo 20","",53.448514,14.488593,"http://www.zditm.szczecin.pl/s30120",,,
30121,"30121","Krzekowo 21","",53.448532,14.488287,"http://www.zditm.szczecin.pl/s30121",,,1
30131,"30131","Krzekowo 31","",53.448784,14.487198,"http://www.zditm.szczecin.pl/s30131",,,
30141,"30141","Krzekowo 41","",53.448818,14.487163,"http://www.zditm.szczecin.pl/s30141",,,
30142,"30142","Krzekowo 42","",53.448902,14.487153,"http://www.zditm.szczecin.pl/s30142",,,
30143,"30143","Krzekowo 43","",53.448875,14.487056,"http://www.zditm.szczecin.pl/s30143",,,
30210,"30210","Żołnierska 10","",53.447292,14.491122,"http://www.zditm.szczecin.pl/s30210",,,
30211,"30211","Żołnierska 11","",53.446819,14.491846,"http://www.zditm.szczecin.pl/s30211",,,1
30212,"30212","Żołnierska 12","",53.447142,14.491036,"http://www.zditm.szczecin.pl/s30212",,,1
30311,"30311","Wernyhory 11","",53.445246,14.497919,"http://www.zditm.szczecin.pl/s30311",,,
30321,"30321","Wernyhory 21","",53.444364,14.498259,"http://www.zditm.szczecin.pl/s30321",,,
30341,"30341","Wernyhory 41","",53.444805,14.496980,"http://www.zditm.szczecin.pl/s30341",,,
30411,"30411","Brzozowskiego 11","",53.443004,14.503026,"http://www.zditm.szczecin.pl/s30411",,,
30412,"30412","Brzozowskiego 12","",53.442980,14.502696,"http://www.zditm.szczecin.pl/s30412",,,
30413,"30413","Brzozowskiego 13","",53.443126,14.501754,"http://www.zditm.szczecin.pl/s30413",,,
30414,"30414","Brzozowskiego 14","",53.443087,14.501599,"http://www.zditm.szczecin.pl/s30414",,,
30511,"30511","Konopnickiej 11","",53.442148,14.508390,"http://www.zditm.szczecin.pl/s30511",,,
30512,"30512","Konopnickiej 12","",53.442158,14.508082,"http://www.zditm.szczecin.pl/s30512",,,
30513,"30513","Konopnickiej 13","",53.442384,14.506765,"http://www.zditm.szczecin.pl/s30513",,,
30514,"30514","Konopnickiej 14","",53.442295,14.506893,"http://www.zditm.szczecin.pl/s30514",,,
30611,"30611","Poniatowskiego 11","",53.441183,14.513808,"http://www.zditm.szczecin.pl/s30611",,,
30621,"30621","Poniatowskiego 21","",53.440659,14.514194,"http://www.zditm.szczecin.pl/s30621",,,
30622,"30622","Poniatowskiego 22","",53.440541,14.514023,"http://www.zditm.szczecin.pl/s30622",,,
30631,"30631","Poniatowskiego 31","",53.440129,14.512955,"http://www.zditm.szczecin.pl/s30631",,,
30641,"30641","Poniatowskiego 41","",53.440832,14.512612,"http://www.zditm.szczecin.pl/s30641",,,
30642,"30642","Poniatowskiego 42","",53.440899,14.512869,"http://www.zditm.szczecin.pl/s30642",,,
30711,"30711","Karłowicza 11","",53.439125,14.521189,"http://www.zditm.szczecin.pl/s30711",,,
30712,"30712","Karłowicza 12","",53.439138,14.520310,"http://www.zditm.szczecin.pl/s30712",,,
30713,"30713","Karłowicza 13","",53.439010,14.521147,"http://www.zditm.szczecin.pl/s30713",,,
30714,"30714","Karłowicza 14","",53.439119,14.519526,"http://www.zditm.szczecin.pl/s30714",,,
30811,"30811","Lodogryf 11","",53.443361,14.526793,"http://www.zditm.szczecin.pl/s30811",,,
30812,"30812","Lodogryf 12","",53.442515,14.528458,"http://www.zditm.szczecin.pl/s30812",,,
30813,"30813","Lodogryf 13","",53.442803,14.528040,"http://www.zditm.szczecin.pl/s30813",,,
30814,"30814","Lodogryf 14","",53.443528,14.526903,"http://www.zditm.szczecin.pl/s30814",,,
30911,"30911","Traugutta 11","",53.446973,14.520615,"http://www.zditm.szczecin.pl/s30911",,,
30912,"30912","Traugutta 12","",53.447161,14.520374,"http://www.zditm.szczecin.pl/s30912",,,
30921,"30921","Traugutta 21","",53.445909,14.522729,"http://www.zditm.szczecin.pl/s30921",,,
30922,"30922","Traugutta 22","",53.446222,14.521758,"http://www.zditm.szczecin.pl/s30922",,,
31011,"31011","Wincentego Pola 11","",53.449956,14.515621,"http://www.zditm.szczecin.pl/s31011",,,
31111,"31111","Unii Lubelskiej 11","",53.451662,14.512649,"http://www.zditm.szczecin.pl/s31111",,,
31112,"31112","Unii Lubelskiej 12","",53.451809,14.512531,"http://www.zditm.szczecin.pl/s31112",,,
31113,"31113","Unii Lubelskiej 13","",53.451969,14.512472,"http://www.zditm.szczecin.pl/s31113",,,
31121,"31121","Unii Lubelskiej 21","",53.450934,14.513626,"http://www.zditm.szczecin.pl/s31121",,,
31131,"31131","Unii Lubelskiej 31","",53.451162,14.512225,"http://www.zditm.szczecin.pl/s31131",,,
31211,"31211","Zajezdnia Pogodno 11","",53.455540,14.506797,"http://www.zditm.szczecin.pl/s31211",,,
31212,"31212","Zajezdnia Pogodno 12","",53.455743,14.506601,"http://www.zditm.szczecin.pl/s31212",,,
31213,"31213","Zajezdnia Pogodno 13","",53.455727,14.506695,"http://www.zditm.szczecin.pl/s31213",,,
31214,"31214","Zajezdnia Pogodno 14","",53.455997,14.506469,"http://www.zditm.szczecin.pl/s31214",,,
31215,"31215","Zajezdnia Pogodno 15","",53.455773,14.506872,"http://www.zditm.szczecin.pl/s31215",,,
31216,"31216","Zajezdnia Pogodno 16","",53.456246,14.506341,"http://www.zditm.szczecin.pl/s31216",,,
31217,"31217","Zajezdnia Pogodno 17","",53.456745,14.504871,"http://www.zditm.szczecin.pl/s31217",,,
31312,"31312","Spacerowa 12","",53.460148,14.499482,"http://www.zditm.szczecin.pl/s31312",,,
31331,"31331","Spacerowa 31","",53.459942,14.499903,"http://www.zditm.szczecin.pl/s31331",,,
31334,"31334","Spacerowa 34","",53.458022,14.502873,"http://www.zditm.szczecin.pl/s31334",,,
31341,"31341","Spacerowa nż 41","na żądanie",53.457540,14.498868,"http://www.zditm.szczecin.pl/s31341",,,
31342,"31342","Spacerowa nż 42","na żądanie",53.457533,14.498729,"http://www.zditm.szczecin.pl/s31342",,,
31411,"31411","Tor Kolarski 11","",53.461277,14.497624,"http://www.zditm.szczecin.pl/s31411",,,
31412,"31412","Tor Kolarski 12","",53.461385,14.497645,"http://www.zditm.szczecin.pl/s31412",,,
31413,"31413","Tor Kolarski nż 13","na żądanie",53.461420,14.497774,"http://www.zditm.szczecin.pl/s31413",,,
31414,"31414","Tor Kolarski nż 14","na żądanie",53.461516,14.497715,"http://www.zditm.szczecin.pl/s31414",,,
31511,"31511","Goplana 11","",53.464518,14.493139,"http://www.zditm.szczecin.pl/s31511",,,
31512,"31512","Goplana 12","",53.464892,14.492919,"http://www.zditm.szczecin.pl/s31512",,,2
31513,"31513","Goplana nż 13","na żądanie",53.464943,14.493048,"http://www.zditm.szczecin.pl/s31513",,,
31514,"31514","Goplana nż 14","na żądanie",53.464809,14.493316,"http://www.zditm.szczecin.pl/s31514",,,
31611,"31611","Kasyno 11","",53.466588,14.490446,"http://www.zditm.szczecin.pl/s31611",,,
31612,"31612","Kasyno 12","",53.466875,14.490333,"http://www.zditm.szczecin.pl/s31612",,,2
31613,"31613","Kasyno nż 13","na żądanie",53.466926,14.490473,"http://www.zditm.szczecin.pl/s31613",,,
31614,"31614","Kasyno nż 14","na żądanie",53.466792,14.490730,"http://www.zditm.szczecin.pl/s31614",,,
31711,"31711","Głębokie 11","",53.471623,14.486529,"http://www.zditm.szczecin.pl/s31711",,,
31712,"31712","Głębokie 12","",53.471645,14.486631,"http://www.zditm.szczecin.pl/s31712",,,
31721,"31721","Głębokie 21","",53.471362,14.486685,"http://www.zditm.szczecin.pl/s31721",,,
31722,"31722","Głębokie 22","",53.471371,14.486793,"http://www.zditm.szczecin.pl/s31722",,,
31811,"31811","Jaworowa 11","",53.477383,14.485315,"http://www.zditm.szczecin.pl/s31811",,,
31812,"31812","Jaworowa 12","",53.476808,14.485489,"http://www.zditm.szczecin.pl/s31812",,,
31911,"31911","Pilchowo Ogrody nż 11","na żądanie",53.489280,14.481455,"http://www.zditm.szczecin.pl/s31911",,,
31912,"31912","Pilchowo Ogrody nż 12","na żądanie",53.488770,14.481820,"http://www.zditm.szczecin.pl/s31912",,,
32011,"32011","Unii Lubelskiej Szpital 11","",53.450797,14.504984,"http://www.zditm.szczecin.pl/s32011",,,
32012,"32012","Unii Lubelskiej Szpital 12","",53.450627,14.505794,"http://www.zditm.szczecin.pl/s32012",,,
32111,"32111","Zawadzkiego Kościół 11","",53.451017,14.500617,"http://www.zditm.szczecin.pl/s32111",,,
32112,"32112","Zawadzkiego Kościół 12","",53.451103,14.500654,"http://www.zditm.szczecin.pl/s32112",,,
32121,"32121","Zawadzkiego Kościół 21","",53.450667,14.501486,"http://www.zditm.szczecin.pl/s32121",,,
32141,"32141","Zawadzkiego Kościół 41","",53.450490,14.500418,"http://www.zditm.szczecin.pl/s32141",,,
32211,"32211","Zawadzkiego 11","",53.455403,14.497495,"http://www.zditm.szczecin.pl/s32211",,,
32212,"32212","Zawadzkiego 12","",53.456144,14.497677,"http://www.zditm.szczecin.pl/s32212",,,
32311,"32311","Szafera 11","",53.456812,14.493391,"http://www.zditm.szczecin.pl/s32311",,,
32312,"32312","Szafera 12","",53.456661,14.491991,"http://www.zditm.szczecin.pl/s32312",,,
32411,"32411","Romera 11","",53.455010,14.485983,"http://www.zditm.szczecin.pl/s32411",,,
32412,"32412","Romera 12","",53.455112,14.486112,"http://www.zditm.szczecin.pl/s32412",,,
32511,"32511","Krzekowo Kościół 11","",53.450247,14.483966,"http://www.zditm.szczecin.pl/s32511",,,
32512,"32512","Krzekowo Kościół 12","",53.449966,14.484068,"http://www.zditm.szczecin.pl/s32512",,,
32531,"32531","Krzekowo Kościół nż 31","na żądanie",53.448854,14.484159,"http://www.zditm.szczecin.pl/s32531",,,
32532,"32532","Krzekowo Kościół nż 32","na żądanie",53.449020,14.484073,"http://www.zditm.szczecin.pl/s32532",,,
32611,"32611","Klonowica Zajezdnia 11","",53.450087,14.497205,"http://www.zditm.szczecin.pl/s32611",,,
32621,"32621","Klonowica Zajezdnia 21","",53.449113,14.496631,"http://www.zditm.szczecin.pl/s32621",,,
32622,"32622","Klonowica Zajezdnia 22","",53.449535,14.496411,"http://www.zditm.szczecin.pl/s32622",,,
32631,"32631","Klonowica Zajezdnia 31","",53.449905,14.495703,"http://www.zditm.szczecin.pl/s32631",,,
32632,"32632","Klonowica Zajezdnia 32","",53.450103,14.495719,"http://www.zditm.szczecin.pl/s32632",,,
32711,"32711","Modra 11","",53.453908,14.482356,"http://www.zditm.szczecin.pl/s32711",,,
32712,"32712","Modra 12","",53.453863,14.481139,"http://www.zditm.szczecin.pl/s32712",,,
32811,"32811","Wronia 11","",53.454215,14.475965,"http://www.zditm.szczecin.pl/s32811",,,
32812,"32812","Wronia 12","",53.454189,14.475667,"http://www.zditm.szczecin.pl/s32812",,,
32911,"32911","Rozmarynowa 11","",53.455409,14.469326,"http://www.zditm.szczecin.pl/s32911",,,
32912,"32912","Rozmarynowa 12","",53.455668,14.468170,"http://www.zditm.szczecin.pl/s32912",,,
33011,"33011","Zaściankowa 11","",53.456601,14.461709,"http://www.zditm.szczecin.pl/s33011",,,
33012,"33012","Zaściankowa 12","",53.456483,14.462465,"http://www.zditm.szczecin.pl/s33012",,,
33311,"33311","Reduty Ordona nż 11","na żądanie",53.442627,14.498772,"http://www.zditm.szczecin.pl/s33311",,,
33321,"33321","Reduty Ordona nż 21","na żądanie",53.442567,14.496830,"http://www.zditm.szczecin.pl/s33321",,,
33411,"33411","Kleeberga 11","",53.442215,14.492865,"http://www.zditm.szczecin.pl/s33411",,,
33412,"33412","Kleeberga 12","",53.442138,14.492545,"http://www.zditm.szczecin.pl/s33412",,,
33511,"33511","Łukasińskiego 11","",53.441228,14.486165,"http://www.zditm.szczecin.pl/s33511",,,
33512,"33512","Łukasińskiego 12","",53.441148,14.486154,"http://www.zditm.szczecin.pl/s33512",,,
33621,"33621","Zakłady Piekarnicze 21","",53.440100,14.481782,"http://www.zditm.szczecin.pl/s33621",,,
33622,"33622","Zakłady Piekarnicze 22","",53.440042,14.481493,"http://www.zditm.szczecin.pl/s33622",,,
33711,"33711","Ogrody im. Bema nż 11","na żądanie",53.439656,14.474712,"http://www.zditm.szczecin.pl/s33711",,,
33712,"33712","Ogrody im. Bema nż 12","na żądanie",53.439710,14.477266,"http://www.zditm.szczecin.pl/s33712",,,
33811,"33811","Ogrody Działkowe nż 11","na żądanie",53.441669,14.468768,"http://www.zditm.szczecin.pl/s33811",,,
33812,"33812","Ogrody Działkowe nż 12","na żądanie",53.441707,14.468328,"http://www.zditm.szczecin.pl/s33812",,,
33911,"33911","Łukasińskiego Ogrody 11","",53.442321,14.462739,"http://www.zditm.szczecin.pl/s33911",,,
34011,"34011","Bracka 11","",53.442046,14.487367,"http://www.zditm.szczecin.pl/s34011",,,
34021,"34021","Bracka 21","",53.440701,14.488182,"http://www.zditm.szczecin.pl/s34021",,,
34022,"34022","Bracka 22","",53.440908,14.487699,"http://www.zditm.szczecin.pl/s34022",,,
34111,"34111","Taczaka nż 11","na żądanie",53.436051,14.491562,"http://www.zditm.szczecin.pl/s34111",,,
34121,"34121","Taczaka nż 21","na żądanie",53.435128,14.492018,"http://www.zditm.szczecin.pl/s34121",,,
34211,"34211","Chłopickiego 11","",53.438758,14.499158,"http://www.zditm.szczecin.pl/s34211",,,
34311,"34311","Czorsztyńska 11","",53.438665,14.500907,"http://www.zditm.szczecin.pl/s34311",,,
34411,"34411","Wita Stwosza 11","",53.435361,14.499973,"http://www.zditm.szczecin.pl/s34411",,,
34511,"34511","Żwirki i Wigury 11","",53.435902,14.501701,"http://www.zditm.szczecin.pl/s34511",,,
34611,"34611","Derdowskiego 11","",53.432708,14.502779,"http://www.zditm.szczecin.pl/s34611",,,
34621,"34621","Derdowskiego 21","",53.433792,14.501658,"http://www.zditm.szczecin.pl/s34621",,,
34711,"34711","Osiedle Kaliny 11","",53.432836,14.504852,"http://www.zditm.szczecin.pl/s34711",,,
34712,"34712","Osiedle Kaliny 12","",53.432809,14.505139,"http://www.zditm.szczecin.pl/s34712",,,
34811,"34811","Witkiewicza Szkoła 11","",53.432814,14.508326,"http://www.zditm.szczecin.pl/s34811",,,
34812,"34812","Witkiewicza Szkoła 12","",53.432804,14.509828,"http://www.zditm.szczecin.pl/s34812",,,
34911,"34911","Witkiewicza 11","",53.434015,14.511791,"http://www.zditm.szczecin.pl/s34911",,,
34912,"34912","Witkiewicza 12","",53.433667,14.511904,"http://www.zditm.szczecin.pl/s34912",,,
35011,"35011","Osiedle Przyjaźni 11","",53.430698,14.512231,"http://www.zditm.szczecin.pl/s35011",,,
35012,"35012","Osiedle Przyjaźni 12","",53.430522,14.512488,"http://www.zditm.szczecin.pl/s35012",,,
35021,"35021","Osiedle Przyjaźni 21","",53.428096,14.512483,"http://www.zditm.szczecin.pl/s35021",,,
35022,"35022","Osiedle Przyjaźni 22","",53.428643,14.511496,"http://www.zditm.szczecin.pl/s35022",,,
35111,"35111","26 Kwietnia 11","",53.428633,14.516469,"http://www.zditm.szczecin.pl/s35111",,,
35112,"35112","26 Kwietnia 12","",53.428362,14.516324,"http://www.zditm.szczecin.pl/s35112",,,
35211,"35211","Santocka 11","",53.425555,14.512365,"http://www.zditm.szczecin.pl/s35211",,,
35212,"35212","Santocka 12","",53.425683,14.512419,"http://www.zditm.szczecin.pl/s35212",,,
35311,"35311","Zielonogórska 11","",53.428828,14.504715,"http://www.zditm.szczecin.pl/s35311",,,
35312,"35312","Zielonogórska 12","",53.428592,14.505193,"http://www.zditm.szczecin.pl/s35312",,,
35411,"35411","Kmieca 11","",53.429400,14.500290,"http://www.zditm.szczecin.pl/s35411",,,
35431,"35431","Kmieca 31","",53.428096,14.499678,"http://www.zditm.szczecin.pl/s35431",,,
35441,"35441","Kmieca 41","",53.429464,14.499024,"http://www.zditm.szczecin.pl/s35441",,,
35511,"35511","Stadion ""Arkonia"" nż 11","na żądanie",53.461769,14.508283,"http://www.zditm.szczecin.pl/s35511",,,
35512,"35512","Stadion ""Arkonia"" nż 12","na żądanie",53.461733,14.508315,"http://www.zditm.szczecin.pl/s35512",,,
35611,"35611","Las Arkoński nż 11","na żądanie",53.458135,14.516997,"http://www.zditm.szczecin.pl/s35611",,,
35612,"35612","Las Arkoński nż 12","na żądanie",53.458051,14.517091,"http://www.zditm.szczecin.pl/s35612",,,
35621,"35621","Las Arkoński 21","",53.458025,14.516909,"http://www.zditm.szczecin.pl/s35621",,,1
35622,"35622","Las Arkoński 22","",53.457987,14.516866,"http://www.zditm.szczecin.pl/s35622",,,1
35631,"35631","Las Arkoński 31","",53.457479,14.516522,"http://www.zditm.szczecin.pl/s35631",,,1
35633,"35633","Las Arkoński 33","",53.457559,14.516469,"http://www.zditm.szczecin.pl/s35633",,,1
35711,"35711","Wojciechowskiego 11","",53.455844,14.519757,"http://www.zditm.szczecin.pl/s35711",,,
35712,"35712","Wojciechowskiego 12","",53.456645,14.518979,"http://www.zditm.szczecin.pl/s35712",,,
35811,"35811","Tatrzańska 11","",53.454533,14.521224,"http://www.zditm.szczecin.pl/s35811",,,
35911,"35911","Arkońska Szpital 11","",53.452252,14.525401,"http://www.zditm.szczecin.pl/s35911",,,
35912,"35912","Arkońska Szpital 12","",53.452645,14.524368,"http://www.zditm.szczecin.pl/s35912",,,
36011,"36011","Wszystkich Świętych 11","",53.451265,14.530529,"http://www.zditm.szczecin.pl/s36011",,,
36041,"36041","Wszystkich Świętych 41","",53.451063,14.528981,"http://www.zditm.szczecin.pl/s36041",,,
36042,"36042","Wszystkich Świętych 42","",53.451142,14.528898,"http://www.zditm.szczecin.pl/s36042",,,
36111,"36111","Niemierzyńska Technopark 11","",53.448988,14.535512,"http://www.zditm.szczecin.pl/s36111",,,
36112,"36112","Niemierzyńska Technopark 12","",53.449314,14.534413,"http://www.zditm.szczecin.pl/s36112",,,
36211,"36211","Muzeum Techniki 11","",53.447417,14.540220,"http://www.zditm.szczecin.pl/s36211",,,
36212,"36212","Muzeum Techniki 12","",53.447685,14.539273,"http://www.zditm.szczecin.pl/s36212",,,
36311,"36311","Słowackiego 11","",53.444921,14.539391,"http://www.zditm.szczecin.pl/s36311",,,
36312,"36312","Słowackiego 12","",53.444800,14.540029,"http://www.zditm.szczecin.pl/s36312",,,
36411,"36411","Teatr Letni 11","",53.446736,14.529520,"http://www.zditm.szczecin.pl/s36411",,,
36412,"36412","Teatr Letni 12","",53.446746,14.528614,"http://www.zditm.szczecin.pl/s36412",,,
36511,"36511","Berlinga 11","",53.440963,14.495317,"http://www.zditm.szczecin.pl/s36511",,,
36611,"36611","Roweckiego 11","",53.436606,14.496733,"http://www.zditm.szczecin.pl/s36611",,,
36711,"36711","Szeroka nż 11","na żądanie",53.445947,14.484588,"http://www.zditm.szczecin.pl/s36711",,,
36712,"36712","Szeroka nż 12","na żądanie",53.445819,14.484679,"http://www.zditm.szczecin.pl/s36712",,,
36811,"36811","Miodowa Leśniczówka nż 11","na żądanie",53.473699,14.494056,"http://www.zditm.szczecin.pl/s36811",,,
36812,"36812","Miodowa Leśniczówka nż 12","na żądanie",53.473493,14.493077,"http://www.zditm.szczecin.pl/s36812",,,
36911,"36911","Św. Jana Bosko 11","",53.434015,14.517198,"http://www.zditm.szczecin.pl/s36911",,,
36912,"36912","Św. Jana Bosko 12","",53.433958,14.517123,"http://www.zditm.szczecin.pl/s36912",,,
37011,"37011","Kutrzeby 11","",53.435955,14.495311,"http://www.zditm.szczecin.pl/s37011",,,
37012,"37012","Kutrzeby 12","",53.435917,14.495341,"http://www.zditm.szczecin.pl/s37012",,,
40111,"40111","Robotnicza 11","",53.456796,14.586716,"http://www.zditm.szczecin.pl/s40111",,,
40112,"40112","Robotnicza 12","",53.456917,14.586963,"http://www.zditm.szczecin.pl/s40112",,,
40113,"40113","Robotnicza 13","",53.456882,14.586665,"http://www.zditm.szczecin.pl/s40113",,,
40211,"40211","Zajezdnia Golęcin 11","",53.459766,14.592643,"http://www.zditm.szczecin.pl/s40211",,,
40212,"40212","Zajezdnia Golęcin 12","",53.459779,14.592839,"http://www.zditm.szczecin.pl/s40212",,,
40311,"40311","Wiszesława 11","",53.459702,14.594285,"http://www.zditm.szczecin.pl/s40311",,,
40411,"40411","Strzałowska 11","",53.463333,14.594242,"http://www.zditm.szczecin.pl/s40411",,,
40421,"40421","Strzałowska 21","",53.463404,14.594827,"http://www.zditm.szczecin.pl/s40421",,,
40431,"40431","Strzałowska 31","",53.462240,14.594754,"http://www.zditm.szczecin.pl/s40431",,,
40511,"40511","Światowida 11","",53.466485,14.597074,"http://www.zditm.szczecin.pl/s40511",,,
40512,"40512","Światowida 12","",53.468156,14.598378,"http://www.zditm.szczecin.pl/s40512",,,
40611,"40611","Lipowa 11","",53.473279,14.602045,"http://www.zditm.szczecin.pl/s40611",,,
40612,"40612","Lipowa 12","",53.473371,14.602305,"http://www.zditm.szczecin.pl/s40612",,,
40711,"40711","Gocław 11","",53.476354,14.604641,"http://www.zditm.szczecin.pl/s40711",,,
40712,"40712","Gocław 12","",53.476279,14.604539,"http://www.zditm.szczecin.pl/s40712",,,
40721,"40721","Gocław 21","",53.476033,14.603978,"http://www.zditm.szczecin.pl/s40721",,,
40811,"40811","Nad Odrą 11","",53.484310,14.611086,"http://www.zditm.szczecin.pl/s40811",,,
40812,"40812","Nad Odrą 12","",53.484655,14.611328,"http://www.zditm.szczecin.pl/s40812",,,
40911,"40911","Kościelna 11","",53.490857,14.612465,"http://www.zditm.szczecin.pl/s40911",,,
40912,"40912","Kościelna 12","",53.491084,14.612427,"http://www.zditm.szczecin.pl/s40912",,,
41011,"41011","Zamknięta 11","",53.495673,14.613715,"http://www.zditm.szczecin.pl/s41011",,,
41012,"41012","Zamknięta 12","",53.495416,14.613844,"http://www.zditm.szczecin.pl/s41012",,,
41111,"41111","Nad Odrą 4 11","",53.502942,14.613892,"http://www.zditm.szczecin.pl/s41111",,,
41112,"41112","Nad Odrą 4 12","",53.502198,14.613924,"http://www.zditm.szczecin.pl/s41112",,,
41211,"41211","Cegłówka 11","",53.506927,14.614713,"http://www.zditm.szczecin.pl/s41211",,,
41212,"41212","Cegłówka 12","",53.507542,14.615002,"http://www.zditm.szczecin.pl/s41212",,,
41311,"41311","Celulozowa 11","",53.514174,14.613978,"http://www.zditm.szczecin.pl/s41311",,,
41312,"41312","Celulozowa 12","",53.514423,14.614080,"http://www.zditm.szczecin.pl/s41312",,,
41411,"41411","Skolwin Dworzec 11","",53.517693,14.613699,"http://www.zditm.szczecin.pl/s41411",,,
41412,"41412","Skolwin Dworzec 12","",53.517119,14.614064,"http://www.zditm.szczecin.pl/s41412",,,
41511,"41511","Stołczyńska 11","",53.521160,14.609751,"http://www.zditm.szczecin.pl/s41511",,,
41512,"41512","Stołczyńska 12","",53.520624,14.610496,"http://www.zditm.szczecin.pl/s41512",,,
41611,"41611","Wodna 11","",53.523567,14.606446,"http://www.zditm.szczecin.pl/s41611",,,
41612,"41612","Wodna 12","",53.524051,14.605663,"http://www.zditm.szczecin.pl/s41612",,,
41711,"41711","Nowy Świat 11","",53.527359,14.600583,"http://www.zditm.szczecin.pl/s41711",,,
41712,"41712","Nowy Świat 12","",53.526938,14.601146,"http://www.zditm.szczecin.pl/s41712",,,
41811,"41811","Orłowska 11","",53.532097,14.592381,"http://www.zditm.szczecin.pl/s41811",,,
41812,"41812","Orłowska 12","",53.532421,14.592167,"http://www.zditm.szczecin.pl/s41812",,,
41821,"41821","Orłowska nż 21","na żądanie",53.531362,14.591462,"http://www.zditm.szczecin.pl/s41821",,,
41822,"41822","Orłowska nż 22","na żądanie",53.531258,14.591237,"http://www.zditm.szczecin.pl/s41822",,,
41911,"41911","Teleyard 11","",53.505279,14.617778,"http://www.zditm.szczecin.pl/s41911",,,
42011,"42011","Artyleryjska 11","",53.529787,14.589189,"http://www.zditm.szczecin.pl/s42011",,,
42012,"42012","Artyleryjska 12","",53.530055,14.589666,"http://www.zditm.szczecin.pl/s42012",,,
42111,"42111","Górnicza nż 11","na żądanie",53.527090,14.589889,"http://www.zditm.szczecin.pl/s42111",,,
42112,"42112","Górnicza nż 12","na żądanie",53.527121,14.589949,"http://www.zditm.szczecin.pl/s42112",,,
42211,"42211","Kamienna 11","",53.523908,14.590968,"http://www.zditm.szczecin.pl/s42211",,,
42212,"42212","Kamienna 12","",53.524497,14.591099,"http://www.zditm.szczecin.pl/s42212",,,
42311,"42311","Skolwin 11","",53.520802,14.594993,"http://www.zditm.szczecin.pl/s42311",,,
42411,"42411","Ogrody ""Neptun"" nż 11","na żądanie",53.497996,14.581089,"http://www.zditm.szczecin.pl/s42411",,,
42412,"42412","Ogrody ""Neptun"" nż 12","na żądanie",53.498615,14.580563,"http://www.zditm.szczecin.pl/s42412",,,
42511,"42511","Zagórskiego 11","",53.494444,14.583497,"http://www.zditm.szczecin.pl/s42511",,,
42512,"42512","Zagórskiego 12","",53.493640,14.583803,"http://www.zditm.szczecin.pl/s42512",,,
42611,"42611","Kolonistów 11","",53.488157,14.585356,"http://www.zditm.szczecin.pl/s42611",,,
42621,"42621","Kolonistów 21","",53.487474,14.585471,"http://www.zditm.szczecin.pl/s42621",,,
42711,"42711","Zagórskiego 10 nż 11","na żądanie",53.493873,14.580815,"http://www.zditm.szczecin.pl/s42711",,,
42712,"42712","Zagórskiego 10 nż 12","na żądanie",53.493924,14.581083,"http://www.zditm.szczecin.pl/s42712",,,
42811,"42811","Średnia nż 11","na żądanie",53.491671,14.574426,"http://www.zditm.szczecin.pl/s42811",,,
42812,"42812","Średnia nż 12","na żądanie",53.491888,14.575161,"http://www.zditm.szczecin.pl/s42812",,,
42911,"42911","Ludgardy 11","",53.489465,14.574142,"http://www.zditm.szczecin.pl/s42911",,,
42912,"42912","Ludgardy 12","",53.489462,14.574222,"http://www.zditm.szczecin.pl/s42912",,,
43011,"43011","Dywizjonu 303 11","",53.486548,14.576008,"http://www.zditm.szczecin.pl/s43011",,,
43012,"43012","Dywizjonu 303 12","",53.487100,14.574447,"http://www.zditm.szczecin.pl/s43012",,,
43111,"43111","Górna 11","",53.483758,14.582612,"http://www.zditm.szczecin.pl/s43111",,,
43112,"43112","Górna 12","",53.483851,14.582242,"http://www.zditm.szczecin.pl/s43112",,,
43211,"43211","Golęcińska 11","",53.490994,14.598508,"http://www.zditm.szczecin.pl/s43211",,,
43212,"43212","Golęcińska 12","",53.490970,14.598579,"http://www.zditm.szczecin.pl/s43212",,,
43311,"43311","Policka 11","",53.496210,14.588931,"http://www.zditm.szczecin.pl/s43311",,,
43312,"43312","Policka 12","",53.496155,14.587842,"http://www.zditm.szczecin.pl/s43312",,,
43411,"43411","Bajeczna 11","",53.496148,14.594677,"http://www.zditm.szczecin.pl/s43411",,,
43412,"43412","Bajeczna 12","",53.496134,14.593893,"http://www.zditm.szczecin.pl/s43412",,,
43511,"43511","Stołczyn Kościół 11","",53.494168,14.599049,"http://www.zditm.szczecin.pl/s43511",,,
43512,"43512","Stołczyn Kościół 12","",53.494280,14.599156,"http://www.zditm.szczecin.pl/s43512",,,
43611,"43611","Dąbrówki 11","",53.493618,14.608887,"http://www.zditm.szczecin.pl/s43611",,,
43612,"43612","Dąbrówki 12","",53.493766,14.608182,"http://www.zditm.szczecin.pl/s43612",,,
43711,"43711","Nehringa Pomnik 11","",53.479937,14.587606,"http://www.zditm.szczecin.pl/s43711",,,
43721,"43721","Nehringa Pomnik 21","",53.479441,14.587834,"http://www.zditm.szczecin.pl/s43721",,,
43811,"43811","Pokoju 11","",53.476400,14.588813,"http://www.zditm.szczecin.pl/s43811",,,
43812,"43812","Pokoju 12","",53.475601,14.589757,"http://www.zditm.szczecin.pl/s43812",,,
43911,"43911","Grochowa 11","",53.469161,14.590149,"http://www.zditm.szczecin.pl/s43911",,,
43912,"43912","Grochowa 12","",53.469296,14.590685,"http://www.zditm.szczecin.pl/s43912",,,
44011,"44011","Świętojańska nż 11","na żądanie",53.463624,14.589473,"http://www.zditm.szczecin.pl/s44011",,,
44111,"44111","Paproci 11","",53.461609,14.591571,"http://www.zditm.szczecin.pl/s44111",,,
44112,"44112","Paproci 12","",53.461516,14.591774,"http://www.zditm.szczecin.pl/s44112",,,
44211,"44211","Bogumińska nż 11","na żądanie",53.472584,14.584844,"http://www.zditm.szczecin.pl/s44211",,,
44212,"44212","Bogumińska nż 12","na żądanie",53.472016,14.583277,"http://www.zditm.szczecin.pl/s44212",,,
44311,"44311","Ogrody ""Przyjaźń"" nż 11","na żądanie",53.467440,14.578825,"http://www.zditm.szczecin.pl/s44311",,,
44312,"44312","Ogrody ""Przyjaźń"" nż 12","na żądanie",53.468401,14.579399,"http://www.zditm.szczecin.pl/s44312",,,1
44411,"44411","Hoża 11","",53.463701,14.577387,"http://www.zditm.szczecin.pl/s44411",,,
44412,"44412","Hoża 12","",53.463436,14.577307,"http://www.zditm.szczecin.pl/s44412",,,
44421,"44421","Hoża 21","",53.462838,14.577527,"http://www.zditm.szczecin.pl/s44421",,,
44422,"44422","Hoża 22","",53.462762,14.577537,"http://www.zditm.szczecin.pl/s44422",,,
44511,"44511","Żelazna 11","",53.459657,14.580203,"http://www.zditm.szczecin.pl/s44511",,,
44521,"44521","Żelazna 21","",53.460047,14.581512,"http://www.zditm.szczecin.pl/s44521",,,
44610,"44610","Studzienna 10","",53.458397,14.579420,"http://www.zditm.szczecin.pl/s44610",,,
44611,"44611","Studzienna 11","",53.458287,14.579372,"http://www.zditm.szczecin.pl/s44611",,,
44711,"44711","Jana z Czarnolasu 11","",53.459980,14.573814,"http://www.zditm.szczecin.pl/s44711",,,
44712,"44712","Jana z Czarnolasu 12","",53.458658,14.571942,"http://www.zditm.szczecin.pl/s44712",,,
44811,"44811","Szczepowa 11","",53.462366,14.570011,"http://www.zditm.szczecin.pl/s44811",,,
44911,"44911","Krucza Dom Kombatanta 11","",53.463995,14.565553,"http://www.zditm.szczecin.pl/s44911",,,
45011,"45011","Krucza 11","",53.466029,14.560366,"http://www.zditm.szczecin.pl/s45011",,,
45111,"45111","Thugutta 11","",53.461411,14.557485,"http://www.zditm.szczecin.pl/s45111",,,
45211,"45211","Axentowicza 11","",53.458881,14.557185,"http://www.zditm.szczecin.pl/s45211",,,
45212,"45212","Axentowicza 12","",53.458239,14.558038,"http://www.zditm.szczecin.pl/s45212",,,
45311,"45311","Bandurskiego 11","",53.456348,14.560312,"http://www.zditm.szczecin.pl/s45311",,,
45312,"45312","Bandurskiego 12","",53.456460,14.560253,"http://www.zditm.szczecin.pl/s45312",,,
45411,"45411","Kormoranów nż 11","na żądanie",53.462663,14.554706,"http://www.zditm.szczecin.pl/s45411",,,
45431,"45431","Kormoranów 31","",53.461321,14.555581,"http://www.zditm.szczecin.pl/s45431",,,
45441,"45441","Kormoranów 41","",53.461290,14.554358,"http://www.zditm.szczecin.pl/s45441",,,
45511,"45511","Rostocka 11","",53.466485,14.552410,"http://www.zditm.szczecin.pl/s45511",,,
45512,"45512","Rostocka 12","",53.466086,14.552786,"http://www.zditm.szczecin.pl/s45512",,,
45611,"45611","Czeska 11","",53.469296,14.549374,"http://www.zditm.szczecin.pl/s45611",,,
45612,"45612","Czeska 12","",53.469537,14.549272,"http://www.zditm.szczecin.pl/s45612",,,
45711,"45711","Łączna nż 11","na żądanie",53.471365,14.549058,"http://www.zditm.szczecin.pl/s45711",,,
45712,"45712","Łączna nż 12","na żądanie",53.471473,14.549068,"http://www.zditm.szczecin.pl/s45712",,,
45811,"45811","Warszewo Kościół 11","",53.473076,14.547132,"http://www.zditm.szczecin.pl/s45811",,,
45812,"45812","Warszewo Kościół 12","",53.473309,14.547368,"http://www.zditm.szczecin.pl/s45812",,,
45821,"45821","Warszewo Kościół 21","",53.472363,14.547818,"http://www.zditm.szczecin.pl/s45821",,,
45822,"45822","Warszewo Kościół 22","",53.472434,14.547427,"http://www.zditm.szczecin.pl/s45822",,,
45911,"45911","Warszewo Szkoła 11","",53.469318,14.542336,"http://www.zditm.szczecin.pl/s45911",,,
45912,"45912","Warszewo Szkoła 12","",53.470292,14.542438,"http://www.zditm.szczecin.pl/s45912",,,
46011,"46011","Szwedzka 11","",53.468855,14.541252,"http://www.zditm.szczecin.pl/s46011",,,
46021,"46021","Szwedzka 21","",53.468239,14.540925,"http://www.zditm.szczecin.pl/s46021",,,
46111,"46111","Warszewo 11","",53.466824,14.536693,"http://www.zditm.szczecin.pl/s46111",,,
46211,"46211","Złotowska 11","",53.464014,14.542524,"http://www.zditm.szczecin.pl/s46211",,,
46221,"46221","Złotowska 21","",53.463052,14.542374,"http://www.zditm.szczecin.pl/s46221",,,
46311,"46311","Duńska 11","",53.459804,14.542717,"http://www.zditm.szczecin.pl/s46311",,,
46312,"46312","Duńska 12","",53.459859,14.542781,"http://www.zditm.szczecin.pl/s46312",,,
46411,"46411","Chopina 11","",53.454643,14.536789,"http://www.zditm.szczecin.pl/s46411",,,
46421,"46421","Chopina 21","",53.453675,14.536754,"http://www.zditm.szczecin.pl/s46421",,,
46431,"46431","Chopina 31","",53.453726,14.534973,"http://www.zditm.szczecin.pl/s46431",,,
46441,"46441","Chopina 41","",53.454700,14.535019,"http://www.zditm.szczecin.pl/s46441",,,
46511,"46511","Wiosny Ludów 11","",53.458006,14.531562,"http://www.zditm.szczecin.pl/s46511",,,
46512,"46512","Wiosny Ludów 12","",53.457789,14.531757,"http://www.zditm.szczecin.pl/s46512",,,
46612,"46612","Osiedle Arkońskie 12","",53.459332,14.531661,"http://www.zditm.szczecin.pl/s46612",,,
46613,"46613","Osiedle Arkońskie 13","",53.459274,14.531634,"http://www.zditm.szczecin.pl/s46613",,,
46711,"46711","Podleśna 11","",53.462928,14.526023,"http://www.zditm.szczecin.pl/s46711",,,
46712,"46712","Podleśna 12","",53.461772,14.527884,"http://www.zditm.szczecin.pl/s46712",,,
46811,"46811","Ogrody ""Skarbówka"" 11","",53.467600,14.522659,"http://www.zditm.szczecin.pl/s46811",,,
46812,"46812","Ogrody ""Skarbówka"" 12","",53.468232,14.522622,"http://www.zditm.szczecin.pl/s46812",,,
46911,"46911","Junacka 11","",53.472533,14.521082,"http://www.zditm.szczecin.pl/s46911",,,
46912,"46912","Junacka 12","",53.471432,14.522101,"http://www.zditm.szczecin.pl/s46912",,,
47011,"47011","Chorzowska 11","",53.474938,14.519049,"http://www.zditm.szczecin.pl/s47011",,,
47012,"47012","Chorzowska 12","",53.475033,14.519113,"http://www.zditm.szczecin.pl/s47012",,,
47111,"47111","Osów 11","",53.480020,14.517896,"http://www.zditm.szczecin.pl/s47111",,,
47112,"47112","Osów 12","",53.480156,14.518038,"http://www.zditm.szczecin.pl/s47112",,,
47211,"47211","Kościelna 12 nż 11","na żądanie",53.493637,14.602262,"http://www.zditm.szczecin.pl/s47211",,,
47212,"47212","Kościelna 12 nż 12","na żądanie",53.493653,14.601221,"http://www.zditm.szczecin.pl/s47212",,,
47311,"47311","Podbórzańska Ogrody 11","",53.478213,14.544342,"http://www.zditm.szczecin.pl/s47311",,,
47312,"47312","Podbórzańska Ogrody 12","",53.477856,14.544498,"http://www.zditm.szczecin.pl/s47312",,,
47411,"47411","Morenowa 11","",53.481422,14.543640,"http://www.zditm.szczecin.pl/s47411",,,
47412,"47412","Morenowa 12","",53.481096,14.543768,"http://www.zditm.szczecin.pl/s47412",,,
47511,"47511","Podbórz 11","",53.486765,14.542411,"http://www.zditm.szczecin.pl/s47511",,,
47611,"47611","Szosa Polska Ranczo nż 11","na żądanie",53.501665,14.577446,"http://www.zditm.szczecin.pl/s47611",,,
47612,"47612","Szosa Polska Ranczo nż 12","na żądanie",53.501349,14.577854,"http://www.zditm.szczecin.pl/s47612",,,
47811,"47811","Pod Urwiskiem nż 11","na żądanie",53.478274,14.509055,"http://www.zditm.szczecin.pl/s47811",,,
47812,"47812","Pod Urwiskiem nż 12","na żądanie",53.478389,14.509946,"http://www.zditm.szczecin.pl/s47812",,,
47911,"47911","Gocławska 11","",53.473638,14.591099,"http://www.zditm.szczecin.pl/s47911",,,
47912,"47912","Gocławska 12","",53.473450,14.591233,"http://www.zditm.szczecin.pl/s47912",,,
48011,"48011","Kresowa 11","",53.460542,14.555945,"http://www.zditm.szczecin.pl/s48011",,,
48211,"48211","Robotnicza 5 11","",53.457974,14.582816,"http://www.zditm.szczecin.pl/s48211",,,0
48212,"48212","Robotnicza 5 12","",53.457942,14.582751,"http://www.zditm.szczecin.pl/s48212",,,0
48311,"48311","Golęcino Szpital 11","",53.467535,14.591486,"http://www.zditm.szczecin.pl/s48311",,,0
48312,"48312","Golęcino Szpital 12","",53.467352,14.591925,"http://www.zditm.szczecin.pl/s48312",,,0
48412,"48412","Ostrowska nż 12","na żądanie",53.466230,14.578594,"http://www.zditm.szczecin.pl/s48412",,,
48511,"48511","Królewskiego nż 11","na żądanie",53.467643,14.558703,"http://www.zditm.szczecin.pl/s48511",,,
48531,"48531","Królewskiego nż 31","na żądanie",53.465721,14.557236,"http://www.zditm.szczecin.pl/s48531",,,
48611,"48611","Świergotki 11","",53.471034,14.562133,"http://www.zditm.szczecin.pl/s48611",,,
48711,"48711","Przepiórki 11","",53.470348,14.564789,"http://www.zditm.szczecin.pl/s48711",,,
50111,"50111","Pilchowo Wodociągi 11","",53.493975,14.480634,"http://www.zditm.szczecin.pl/s50111",,,
50112,"50112","Pilchowo Wodociągi 12","",53.493282,14.480817,"http://www.zditm.szczecin.pl/s50112",,,
50211,"50211","Pilchowo Kościół 11","",53.497906,14.480871,"http://www.zditm.szczecin.pl/s50211",,,
50212,"50212","Pilchowo Kościół 12","",53.498653,14.480640,"http://www.zditm.szczecin.pl/s50212",,,
50311,"50311","Pilchowo Osiedle nż 11","na żądanie",53.502967,14.477834,"http://www.zditm.szczecin.pl/s50311",,,
50312,"50312","Pilchowo Osiedle nż 12","na żądanie",53.503647,14.477738,"http://www.zditm.szczecin.pl/s50312",,,
50411,"50411","Bartoszewo nż 11","na żądanie",53.516966,14.471540,"http://www.zditm.szczecin.pl/s50411",,,
50412,"50412","Bartoszewo nż 12","na żądanie",53.519938,14.470056,"http://www.zditm.szczecin.pl/s50412",,,
50511,"50511","Tanowo Wojska Polskiego 11","",53.532222,14.467776,"http://www.zditm.szczecin.pl/s50511",,,
50512,"50512","Tanowo Wojska Polskiego 12","",53.531645,14.467990,"http://www.zditm.szczecin.pl/s50512",,,
50611,"50611","Tanowo 11","",53.537701,14.466623,"http://www.zditm.szczecin.pl/s50611",,,
50612,"50612","Tanowo 12","",53.538375,14.466531,"http://www.zditm.szczecin.pl/s50612",,,
50711,"50711","Tanowo Policka 11","",53.541878,14.466794,"http://www.zditm.szczecin.pl/s50711",,,
50721,"50721","Tanowo Policka 21","",53.541394,14.466360,"http://www.zditm.szczecin.pl/s50721",,,
50811,"50811","Trzeszczyn Las nż 11","na żądanie",53.544397,14.494711,"http://www.zditm.szczecin.pl/s50811",,,
50812,"50812","Trzeszczyn Las nż 12","na żądanie",53.544202,14.493965,"http://www.zditm.szczecin.pl/s50812",,,
50911,"50911","Trzeszczyn Pomnik nż 11","na żądanie",53.546019,14.503669,"http://www.zditm.szczecin.pl/s50911",,,
50912,"50912","Trzeszczyn Pomnik nż 12","na żądanie",53.545796,14.502612,"http://www.zditm.szczecin.pl/s50912",,,
51011,"51011","Trzeszczyn 11","",53.547769,14.516565,"http://www.zditm.szczecin.pl/s51011",,,
51012,"51012","Trzeszczyn 12","",53.547766,14.516968,"http://www.zditm.szczecin.pl/s51012",,,
51111,"51111","Police Tanowska Szkoła 11","",53.551715,14.541590,"http://www.zditm.szczecin.pl/s51111",,,
51121,"51121","Police Tanowska Szkoła 21","",53.552527,14.542218,"http://www.zditm.szczecin.pl/s51121",,,
51131,"51131","Police Tanowska Szkoła 31","",53.551147,14.540244,"http://www.zditm.szczecin.pl/s51131",,,
51132,"51132","Police Tanowska Szkoła 32","",53.551166,14.541032,"http://www.zditm.szczecin.pl/s51132",,,
51311,"51311","Police Liceum Prywatne 11","",53.555778,14.546257,"http://www.zditm.szczecin.pl/s51311",,,
51411,"51411","Police Tanowska nż 11","na żądanie",53.551045,14.549041,"http://www.zditm.szczecin.pl/s51411",,,
51412,"51412","Police Tanowska nż 12","na żądanie",53.551020,14.548033,"http://www.zditm.szczecin.pl/s51412",,,
51421,"51421","Police Tanowska nż 21","na żądanie",53.550427,14.547212,"http://www.zditm.szczecin.pl/s51421",,,
51422,"51422","Police Tanowska nż 22","na żądanie",53.550548,14.547159,"http://www.zditm.szczecin.pl/s51422",,,
51511,"51511","Police Zajezdnia 11","",53.554320,14.556477,"http://www.zditm.szczecin.pl/s51511",,,
51512,"51512","Police Zajezdnia 12","",53.554266,14.555616,"http://www.zditm.szczecin.pl/s51512",,,
51611,"51611","Police Chodkiewicza 11","",53.544872,14.547411,"http://www.zditm.szczecin.pl/s51611",,,
51711,"51711","Police Wyszyńskiego 11","",53.542702,14.550313,"http://www.zditm.szczecin.pl/s51711",,,
51712,"51712","Police Wyszyńskiego 12","",53.542392,14.550071,"http://www.zditm.szczecin.pl/s51712",,,
51811,"51811","Police Osiedle Chemik 11","",53.539845,14.547459,"http://www.zditm.szczecin.pl/s51811",,,
51821,"51821","Police Osiedle Chemik 21","",53.539264,14.547384,"http://www.zditm.szczecin.pl/s51821",,,
51831,"51831","Police Osiedle Chemik 31","",53.538678,14.546837,"http://www.zditm.szczecin.pl/s51831",,,
51832,"51832","Police Osiedle Chemik 32","",53.539220,14.546767,"http://www.zditm.szczecin.pl/s51832",,,
51911,"51911","Siedlice 11","",53.528003,14.534627,"http://www.zditm.szczecin.pl/s51911",,,
51912,"51912","Siedlice 12","",53.526874,14.532836,"http://www.zditm.szczecin.pl/s51912",,,
52011,"52011","Siedlice Pętla 11","",53.526348,14.528909,"http://www.zditm.szczecin.pl/s52011",,,
52012,"52012","Siedlice Pętla 12","",53.526348,14.529199,"http://www.zditm.szczecin.pl/s52012",,,
52111,"52111","Leśno Górne 11","",53.509297,14.515825,"http://www.zditm.szczecin.pl/s52111",,,
52112,"52112","Leśno Górne 12","",53.508964,14.515132,"http://www.zditm.szczecin.pl/s52112",,,
52211,"52211","Sierakowo nż 11","na żądanie",53.508541,14.498729,"http://www.zditm.szczecin.pl/s52211",,,
52212,"52212","Sierakowo nż 12","na żądanie",53.508244,14.497575,"http://www.zditm.szczecin.pl/s52212",,,
52311,"52311","Pilchowo Leśna nż 11","na żądanie",53.502977,14.487120,"http://www.zditm.szczecin.pl/s52311",,,
52312,"52312","Pilchowo Leśna nż 12","na żądanie",53.502568,14.486251,"http://www.zditm.szczecin.pl/s52312",,,
52411,"52411","Police Piaskowa Szkoła 11","",53.537527,14.551638,"http://www.zditm.szczecin.pl/s52411",,,
52412,"52412","Police Piaskowa Szkoła 12","",53.537521,14.552233,"http://www.zditm.szczecin.pl/s52412",,,
52511,"52511","Police Piaskowa 11","",53.539841,14.559711,"http://www.zditm.szczecin.pl/s52511",,,
52521,"52521","Police Piaskowa 21","",53.539303,14.559046,"http://www.zditm.szczecin.pl/s52521",,,
52611,"52611","Police Grzybowa 11","",53.541751,14.558746,"http://www.zditm.szczecin.pl/s52611",,,
52612,"52612","Police Grzybowa 12","",53.542787,14.558574,"http://www.zditm.szczecin.pl/s52612",,,
52711,"52711","Police Piłsudskiego Rondo 11","",53.544083,14.558459,"http://www.zditm.szczecin.pl/s52711",,,
52721,"52721","Police Piłsudskiego Rondo 21","",53.543351,14.559540,"http://www.zditm.szczecin.pl/s52721",,,
52731,"52731","Police Piłsudskiego Rondo 31","",53.543482,14.557110,"http://www.zditm.szczecin.pl/s52731",,,
52811,"52811","Police PCK 11","",53.543267,14.554379,"http://www.zditm.szczecin.pl/s52811",,,
52911,"52911","Police Szpital 11","",53.545621,14.560178,"http://www.zditm.szczecin.pl/s52911",,,
52912,"52912","Police Szpital 12","",53.546048,14.561176,"http://www.zditm.szczecin.pl/s52912",,,
53011,"53011","Police MOK nż 11","na żądanie",53.547922,14.564459,"http://www.zditm.szczecin.pl/s53011",,,
53111,"53111","Police Dworzec nż 11","na żądanie",53.550739,14.564974,"http://www.zditm.szczecin.pl/s53111",,,
53112,"53112","Police Dworzec 12","",53.549289,14.565306,"http://www.zditm.szczecin.pl/s53112",,,
53211,"53211","Police Starostwo Powiatowe 11","",53.550991,14.553864,"http://www.zditm.szczecin.pl/s53211",,,
53212,"53212","Police Starostwo Powiatowe 12","",53.550937,14.554460,"http://www.zditm.szczecin.pl/s53212",,,
53311,"53311","Police Grunwaldzka 11","",53.551308,14.566128,"http://www.zditm.szczecin.pl/s53311",,,
53312,"53312","Police Grunwaldzka 12","",53.551437,14.567645,"http://www.zditm.szczecin.pl/s53312",,,
53411,"53411","Police Szkolna 11","",53.549917,14.569957,"http://www.zditm.szczecin.pl/s53411",,,
53412,"53412","Police Szkolna 12","",53.549799,14.569539,"http://www.zditm.szczecin.pl/s53412",,,
53511,"53511","Police Kołłątaja 11","",53.551195,14.571046,"http://www.zditm.szczecin.pl/s53511",,,
53521,"53521","Police Kołłątaja 21","",53.549809,14.571835,"http://www.zditm.szczecin.pl/s53521",,,
53611,"53611","Police Mazurska Kościół 11","",53.546481,14.572634,"http://www.zditm.szczecin.pl/s53611",,,
53612,"53612","Police Mazurska Kościół 12","",53.546108,14.572817,"http://www.zditm.szczecin.pl/s53612",,,
53711,"53711","Police Przybora 11","",53.543195,14.563493,"http://www.zditm.szczecin.pl/s53711",,,
53712,"53712","Police Przybora 12","",53.542942,14.565438,"http://www.zditm.szczecin.pl/s53712",,,
53811,"53811","Police Mazurska 11","",53.543845,14.573117,"http://www.zditm.szczecin.pl/s53811",,,
53812,"53812","Police Mazurska 12","",53.543440,14.572361,"http://www.zditm.szczecin.pl/s53812",,,
53911,"53911","Police Wojska Polskiego 11","",53.547170,14.574195,"http://www.zditm.szczecin.pl/s53911",,,
53912,"53912","Police Wojska Polskiego 12","",53.546574,14.574553,"http://www.zditm.szczecin.pl/s53912",,,
54011,"54011","Police Rynek 11","",53.552448,14.572463,"http://www.zditm.szczecin.pl/s54011",,,
54021,"54021","Police Rynek 21","",53.552288,14.572865,"http://www.zditm.szczecin.pl/s54021",,,
54022,"54022","Police Rynek 22","",53.552301,14.572999,"http://www.zditm.szczecin.pl/s54022",,,
54023,"54023","Police Rynek 23","",53.552311,14.573117,"http://www.zditm.szczecin.pl/s54023",,,
54111,"54111","Police Dubois nż 11","na żądanie",53.556347,14.568820,"http://www.zditm.szczecin.pl/s54111",,,
54112,"54112","Police Dubois nż 12","na żądanie",53.556017,14.569416,"http://www.zditm.szczecin.pl/s54112",,,
54211,"54211","Police Kamienna nż 11","na żądanie",53.562647,14.561681,"http://www.zditm.szczecin.pl/s54211",,,
54212,"54212","Police Kamienna nż 12","na żądanie",53.562340,14.562026,"http://www.zditm.szczecin.pl/s54212",,,
54311,"54311","Police Kuźnicka nż 11","na żądanie",53.570670,14.556487,"http://www.zditm.szczecin.pl/s54311",,,
54312,"54312","Police Kuźnicka nż 12","na żądanie",53.570128,14.556750,"http://www.zditm.szczecin.pl/s54312",,,
54411,"54411","Police Zakłady Chemiczne 11","",53.570730,14.550443,"http://www.zditm.szczecin.pl/s54411",,,
54412,"54412","Police Zakłady Chemiczne 12","",53.570811,14.550789,"http://www.zditm.szczecin.pl/s54412",,,
54511,"54511","Police Kombinat Krzyżówka nż 11","na żądanie",53.573884,14.555763,"http://www.zditm.szczecin.pl/s54511",,,
54512,"54512","Police Kombinat Krzyżówka nż 12","na żądanie",53.573944,14.555838,"http://www.zditm.szczecin.pl/s54512",,,
54611,"54611","Police Jasienicka nż 11","na żądanie",53.577547,14.554411,"http://www.zditm.szczecin.pl/s54611",,,
54612,"54612","Police Jasienicka nż 12","na żądanie",53.578701,14.553987,"http://www.zditm.szczecin.pl/s54612",,,
54711,"54711","Police Messer nż 11","na żądanie",53.583665,14.551954,"http://www.zditm.szczecin.pl/s54711",,,
54712,"54712","Police Messer nż 12","na żądanie",53.582971,14.552308,"http://www.zditm.szczecin.pl/s54712",,,
54811,"54811","Police Jasienica Krzyżówka nż 11","na żądanie",53.590285,14.545313,"http://www.zditm.szczecin.pl/s54811",,,
54812,"54812","Police Jasienica Krzyżówka nż 12","na żądanie",53.590314,14.545034,"http://www.zditm.szczecin.pl/s54812",,,
54911,"54911","Police Piotra i Pawła 11","",53.582800,14.539459,"http://www.zditm.szczecin.pl/s54911",,,
55011,"55011","Police Jasienica 11","",53.593880,14.539675,"http://www.zditm.szczecin.pl/s55011",,,
55012,"55012","Police Jasienica 12","",53.592941,14.541606,"http://www.zditm.szczecin.pl/s55012",,,
55111,"55111","Police Jasienica Pętla 11","",53.594587,14.536800,"http://www.zditm.szczecin.pl/s55111",,,
55211,"55211","Police Mścięcino Krzyżówka 11","",53.539695,14.576851,"http://www.zditm.szczecin.pl/s55211",,,
55212,"55212","Police Mścięcino Krzyżówka 12","",53.539727,14.576891,"http://www.zditm.szczecin.pl/s55212",,,
55311,"55311","Police Palmowa 11","",53.536784,14.578701,"http://www.zditm.szczecin.pl/s55311",,,
55312,"55312","Police Palmowa 12","",53.536159,14.578677,"http://www.zditm.szczecin.pl/s55312",,,
55411,"55411","Police Ofiar Stutthofu nż 11","na żądanie",53.533296,14.576282,"http://www.zditm.szczecin.pl/s55411",,,
55412,"55412","Police Ofiar Stutthofu nż 12","na żądanie",53.533561,14.576577,"http://www.zditm.szczecin.pl/s55412",,,
55511,"55511","Przęsocin Centralna 11","",53.515959,14.567388,"http://www.zditm.szczecin.pl/s55511",,,
55512,"55512","Przęsocin Centralna 12","",53.517450,14.567747,"http://www.zditm.szczecin.pl/s55512",,,
55611,"55611","Przęsocin Kościelna nż 11","na żądanie",53.509032,14.570167,"http://www.zditm.szczecin.pl/s55611",,,
55612,"55612","Przęsocin Kościelna nż 12","na żądanie",53.509871,14.569668,"http://www.zditm.szczecin.pl/s55612",,,
55711,"55711","Police Cisowa nż 11","na żądanie",53.539319,14.581367,"http://www.zditm.szczecin.pl/s55711",,,
55712,"55712","Police Cisowa nż 12","na żądanie",53.539488,14.579302,"http://www.zditm.szczecin.pl/s55712",,,
55811,"55811","Police Jesionowa 11","",53.535652,14.587346,"http://www.zditm.szczecin.pl/s55811",,,
55812,"55812","Police Jesionowa 12","",53.536218,14.586064,"http://www.zditm.szczecin.pl/s55812",,,
55911,"55911","Police Klub Nauczyciela 11","",53.543533,14.549739,"http://www.zditm.szczecin.pl/s55911",,,
56311,"56311","Siedlice Las nż 11","na żądanie",53.530050,14.536392,"http://www.zditm.szczecin.pl/s56311",,,
56312,"56312","Siedlice Las nż 12","na żądanie",53.530704,14.537889,"http://www.zditm.szczecin.pl/s56312",,,
60111,"60111","Energetyków 11","",53.419227,14.565813,"http://www.zditm.szczecin.pl/s60111",,,
60112,"60112","Energetyków 12","",53.419238,14.565591,"http://www.zditm.szczecin.pl/s60112",,,1
60113,"60113","Energetyków 13","",53.419107,14.565717,"http://www.zditm.szczecin.pl/s60113",,,1
60114,"60114","Energetyków 14","",53.418794,14.566095,"http://www.zditm.szczecin.pl/s60114",,,
60211,"60211","Port Centralny 11","",53.415180,14.570203,"http://www.zditm.szczecin.pl/s60211",,,
60212,"60212","Port Centralny nż 12","na żądanie",53.415092,14.570092,"http://www.zditm.szczecin.pl/s60212",,,1
60213,"60213","Port Centralny nż 13","na żądanie",53.415007,14.570303,"http://www.zditm.szczecin.pl/s60213",,,1
60214,"60214","Port Centralny 14","",53.414942,14.570176,"http://www.zditm.szczecin.pl/s60214",,,
60221,"60221","Port Centralny 21","",53.414657,14.569115,"http://www.zditm.szczecin.pl/s60221",,,
60222,"60222","Port Centralny 22","",53.414622,14.568981,"http://www.zditm.szczecin.pl/s60222",,,
60311,"60311","Parnica 11","",53.412069,14.578856,"http://www.zditm.szczecin.pl/s60311",,,
60312,"60312","Parnica nż 12","na żądanie",53.410919,14.581367,"http://www.zditm.szczecin.pl/s60312",,,1
60313,"60313","Parnica nż 13","na żądanie",53.411106,14.580832,"http://www.zditm.szczecin.pl/s60313",,,1
60314,"60314","Parnica 14","",53.411543,14.579501,"http://www.zditm.szczecin.pl/s60314",,,
60411,"60411","Merkatora 11","",53.405686,14.593470,"http://www.zditm.szczecin.pl/s60411",,,
60412,"60412","Merkatora nż 12","na żądanie",53.405133,14.594508,"http://www.zditm.szczecin.pl/s60412",,,1
60413,"60413","Merkatora nż 13","na żądanie",53.405339,14.593939,"http://www.zditm.szczecin.pl/s60413",,,1
60414,"60414","Merkatora 14","",53.404810,14.594828,"http://www.zditm.szczecin.pl/s60414",,,
60521,"60521","Basen Górniczy 21","",53.400924,14.598668,"http://www.zditm.szczecin.pl/s60521",,,1
60522,"60522","Basen Górniczy 22","",53.400800,14.598668,"http://www.zditm.szczecin.pl/s60522",,,1
60523,"60523","Basen Górniczy 23","",53.400675,14.598670,"http://www.zditm.szczecin.pl/s60523",,,1
60524,"60524","Basen Górniczy 24","",53.400551,14.598672,"http://www.zditm.szczecin.pl/s60524",,,1
60525,"60525","Basen Górniczy 25","",53.400431,14.598678,"http://www.zditm.szczecin.pl/s60525",,,1
60526,"60526","Basen Górniczy 26","",53.400306,14.598679,"http://www.zditm.szczecin.pl/s60526",,,1
60527,"60527","Basen Górniczy 27","",53.400186,14.598691,"http://www.zditm.szczecin.pl/s60527",,,1
60531,"60531","Basen Górniczy 31","",53.401347,14.598796,"http://www.zditm.szczecin.pl/s60531",,,1
60541,"60541","Basen Górniczy 41","",53.401231,14.599086,"http://www.zditm.szczecin.pl/s60541",,,1
60542,"60542","Basen Górniczy 42","",53.400718,14.599368,"http://www.zditm.szczecin.pl/s60542",,,1
60551,"60551","Basen Górniczy 51","",53.401482,14.599354,"http://www.zditm.szczecin.pl/s60551",,,
60611,"60611","Księżnej Anny nż 11","na żądanie",53.396882,14.607416,"http://www.zditm.szczecin.pl/s60611",,,
60612,"60612","Księżnej Anny nż 12","na żądanie",53.397462,14.609026,"http://www.zditm.szczecin.pl/s60612",,,
60711,"60711","Celna nż 11","na żądanie",53.420044,14.560430,"http://www.zditm.szczecin.pl/s60711",,,
60811,"60811","Składowa nż 11","na żądanie",53.417971,14.557885,"http://www.zditm.szczecin.pl/s60811",,,
60812,"60812","Składowa nż 12","na żądanie",53.417437,14.557313,"http://www.zditm.szczecin.pl/s60812",,,
60911,"60911","Heyki 11","",53.415306,14.554136,"http://www.zditm.szczecin.pl/s60911",,,
61011,"61011","Bulwar Gdański nż 11","na żądanie",53.419526,14.560393,"http://www.zditm.szczecin.pl/s61011",,,
61111,"61111","Bytomska 11","",53.417483,14.572548,"http://www.zditm.szczecin.pl/s61111",,,
61121,"61121","Bytomska 21","",53.417717,14.569244,"http://www.zditm.szczecin.pl/s61121",,,
61211,"61211","Hryniewieckiego nż 11","na żądanie",53.415623,14.576926,"http://www.zditm.szczecin.pl/s61211",,,
61212,"61212","Hryniewieckiego nż 12","na żądanie",53.415605,14.577017,"http://www.zditm.szczecin.pl/s61212",,,
61311,"61311","PŻM 11","",53.419740,14.579230,"http://www.zditm.szczecin.pl/s61311",,,
61312,"61312","PŻM 12","",53.417924,14.578561,"http://www.zditm.szczecin.pl/s61312",,,
61411,"61411","Ogrody ""Portowiec"" nż 11","na żądanie",53.423097,14.580718,"http://www.zditm.szczecin.pl/s61411",,,
61412,"61412","Ogrody ""Portowiec"" nż 12","na żądanie",53.423634,14.581046,"http://www.zditm.szczecin.pl/s61412",,,
61511,"61511","Nabrzeże Ewa 11","",53.427227,14.581663,"http://www.zditm.szczecin.pl/s61511",,,
61711,"61711","Kanał Parnicki nż 11","na żądanie",53.416224,14.560816,"http://www.zditm.szczecin.pl/s61711",,,
61712,"61712","Kanał Parnicki nż 12","na żądanie",53.416275,14.561031,"http://www.zditm.szczecin.pl/s61712",,,
61811,"61811","Marynarska 11","",53.411856,14.557861,"http://www.zditm.szczecin.pl/s61811",,,
61812,"61812","Marynarska 12","",53.411811,14.557995,"http://www.zditm.szczecin.pl/s61812",,,
61911,"61911","Wiejska 11","",53.409547,14.559528,"http://www.zditm.szczecin.pl/s61911",,,
61912,"61912","Wiejska 12","",53.409451,14.559844,"http://www.zditm.szczecin.pl/s61912",,,
62011,"62011","Okrętowa 11","",53.407628,14.563558,"http://www.zditm.szczecin.pl/s62011",,,
62012,"62012","Okrętowa 12","",53.407229,14.563851,"http://www.zditm.szczecin.pl/s62012",,,
62111,"62111","Ogrody ""Stoczniowiec"" 11","",53.401107,14.560810,"http://www.zditm.szczecin.pl/s62111",,,
62112,"62112","Ogrody ""Stoczniowiec"" 12","",53.400946,14.560811,"http://www.zditm.szczecin.pl/s62112",,,
62211,"62211","Kutrowa 11","",53.396604,14.558622,"http://www.zditm.szczecin.pl/s62211",,,
62212,"62212","Kutrowa 12","",53.396699,14.558746,"http://www.zditm.szczecin.pl/s62212",,,
62311,"62311","Wyspa Pucka 11","",53.394720,14.557185,"http://www.zditm.szczecin.pl/s62311",,,
62411,"62411","Dziewoklicz nż 11","na żądanie",53.379079,14.545184,"http://www.zditm.szczecin.pl/s62411",,,
62412,"62412","Dziewoklicz nż 12","na żądanie",53.379235,14.544562,"http://www.zditm.szczecin.pl/s62412",,,
62511,"62511","Kanał Leśny nż 11","na żądanie",53.375549,14.557555,"http://www.zditm.szczecin.pl/s62511",,,
62512,"62512","Kanał Leśny nż 12","na żądanie",53.375699,14.556589,"http://www.zditm.szczecin.pl/s62512",,,
62611,"62611","Krygiera nż 11","na żądanie",53.374966,14.580488,"http://www.zditm.szczecin.pl/s62611",,,
62612,"62612","Krygiera nż 12","na żądanie",53.374886,14.579726,"http://www.zditm.szczecin.pl/s62612",,,
62711,"62711","Logistyczna 11","",53.426010,14.589281,"http://www.zditm.szczecin.pl/s62711",,,
62811,"62811","Przychodnia Portowa nż 11","na żądanie",53.420869,14.562286,"http://www.zditm.szczecin.pl/s62811",,,
69511,"69511","Mierzyn Truskawkowa 11","",53.427120,14.461588,"http://www.zditm.szczecin.pl/s69511",,,
69611,"69611","Będargowo 12 nż 11","na żądanie",53.394167,14.439898,"http://www.zditm.szczecin.pl/s69611",,,
69711,"69711","Mierzyn Demeter nż 11","na żądanie",53.425948,14.438029,"http://www.zditm.szczecin.pl/s69711",,,
69811,"69811","Mierzyn Pod Lipami 11","",53.420685,14.442056,"http://www.zditm.szczecin.pl/s69811",,,
69911,"69911","Mierzyn Modrzewiowa nż 11","na żądanie",53.423543,14.449203,"http://www.zditm.szczecin.pl/s69911",,,
70111,"70111","Most Cłowy nż 11","na żądanie",53.395670,14.615614,"http://www.zditm.szczecin.pl/s70111",,,
70112,"70112","Most Cłowy nż 12","na żądanie",53.396652,14.617030,"http://www.zditm.szczecin.pl/s70112",,,
70211,"70211","Lotnisko nż 11","na żądanie",53.397401,14.618615,"http://www.zditm.szczecin.pl/s70211",,,
70212,"70212","Lotnisko nż 12","na żądanie",53.397052,14.620710,"http://www.zditm.szczecin.pl/s70212",,,
70311,"70311","Przystań Żeglarska nż 11","na żądanie",53.396169,14.626455,"http://www.zditm.szczecin.pl/s70311",,,
70312,"70312","Przystań Żeglarska nż 12","na żądanie",53.395803,14.628365,"http://www.zditm.szczecin.pl/s70312",,,
70411,"70411","Centrum Żeglarskie (Camping) nż 11","na żądanie",53.394941,14.637373,"http://www.zditm.szczecin.pl/s70411",,,
70412,"70412","Centrum Żeglarskie (Camping) nż 12","na żądanie",53.394970,14.635997,"http://www.zditm.szczecin.pl/s70412",,,
70511,"70511","Przestrzenna (Kolonia) nż 11","na żądanie",53.394676,14.644753,"http://www.zditm.szczecin.pl/s70511",,,
70512,"70512","Przestrzenna (Kolonia) nż 12","na żądanie",53.394605,14.647350,"http://www.zditm.szczecin.pl/s70512",,,
70611,"70611","Przybrzeżna nż 11","na żądanie",53.397426,14.659947,"http://www.zditm.szczecin.pl/s70611",,,
70612,"70612","Przybrzeżna nż 12","na żądanie",53.396871,14.658918,"http://www.zditm.szczecin.pl/s70612",,,
70711,"70711","Emilii Gierczak 11","",53.396379,14.667260,"http://www.zditm.szczecin.pl/s70711",,,
70712,"70712","Emilii Gierczak 12","",53.396273,14.667517,"http://www.zditm.szczecin.pl/s70712",,,
70721,"70721","Emilii Gierczak 21","",53.396398,14.666225,"http://www.zditm.szczecin.pl/s70721",,,
70731,"70731","Emilii Gierczak 31","",53.396797,14.666038,"http://www.zditm.szczecin.pl/s70731",,,
70811,"70811","Klombowa 11","",53.393781,14.662832,"http://www.zditm.szczecin.pl/s70811",,,
70812,"70812","Klombowa 12","",53.393665,14.662929,"http://www.zditm.szczecin.pl/s70812",,,
70911,"70911","Gryfińska nż 11","na żądanie",53.390459,14.658665,"http://www.zditm.szczecin.pl/s70911",,,
70912,"70912","Gryfińska nż 12","na żądanie",53.390628,14.659127,"http://www.zditm.szczecin.pl/s70912",,,
71011,"71011","Dąbie Dworzec 11","",53.392179,14.670048,"http://www.zditm.szczecin.pl/s71011",,,
71012,"71012","Dąbie Dworzec 12","",53.392060,14.670103,"http://www.zditm.szczecin.pl/s71012",,,
71111,"71111","Plac Słowiański 11","",53.395260,14.672218,"http://www.zditm.szczecin.pl/s71111",,,
71112,"71112","Plac Słowiański 12","",53.395461,14.672616,"http://www.zditm.szczecin.pl/s71112",,,
71121,"71121","Plac Słowiański 21","",53.394109,14.671998,"http://www.zditm.szczecin.pl/s71121",,,
71122,"71122","Plac Słowiański 22","",53.394061,14.671963,"http://www.zditm.szczecin.pl/s71122",,,
71211,"71211","Jugosłowiańska 11","",53.399192,14.681359,"http://www.zditm.szczecin.pl/s71211",,,
71212,"71212","Jugosłowiańska 12","",53.398818,14.680454,"http://www.zditm.szczecin.pl/s71212",,,
71311,"71311","Warmińska 11","",53.401676,14.687339,"http://www.zditm.szczecin.pl/s71311",,,
71312,"71312","Warmińska 12","",53.401145,14.686464,"http://www.zditm.szczecin.pl/s71312",,,
71411,"71411","Dąbie Osiedle 11","",53.404025,14.691783,"http://www.zditm.szczecin.pl/s71411",,,
71421,"71421","Dąbie Osiedle 21","",53.402987,14.689684,"http://www.zditm.szczecin.pl/s71421",,,
71431,"71431","Dąbie Osiedle 31","",53.403343,14.689857,"http://www.zditm.szczecin.pl/s71431",,,
71432,"71432","Dąbie Osiedle 32","",53.403404,14.689788,"http://www.zditm.szczecin.pl/s71432",,,
71441,"71441","Dąbie Osiedle 41","",53.403567,14.689595,"http://www.zditm.szczecin.pl/s71441",,,
71511,"71511","Wolińska nż 11","na żądanie",53.410513,14.704663,"http://www.zditm.szczecin.pl/s71511",,,
71512,"71512","Wolińska nż 12","na żądanie",53.410602,14.705102,"http://www.zditm.szczecin.pl/s71512",,,
71611,"71611","Stacja Doświadczalna 11","",53.412843,14.713567,"http://www.zditm.szczecin.pl/s71611",,,
71612,"71612","Stacja Doświadczalna 12","",53.412555,14.712080,"http://www.zditm.szczecin.pl/s71612",,,
71711,"71711","Kniewska nż 11","na żądanie",53.416287,14.716287,"http://www.zditm.szczecin.pl/s71711",,,
71712,"71712","Kniewska nż 12","na żądanie",53.416033,14.716527,"http://www.zditm.szczecin.pl/s71712",,,
71811,"71811","Zakłady Drobiarskie (Kniewska) nż 11","na żądanie",53.418159,14.714975,"http://www.zditm.szczecin.pl/s71811",,,
71812,"71812","Zakłady Drobiarskie (Kniewska) nż 12","na żądanie",53.418127,14.715068,"http://www.zditm.szczecin.pl/s71812",,,
71821,"71821","Zakłady Drobiarskie 21","",53.418402,14.714986,"http://www.zditm.szczecin.pl/s71821",,,
71911,"71911","Załom Parkowa (Załom) 11","",53.426915,14.717109,"http://www.zditm.szczecin.pl/s71911",,,
71912,"71912","Załom Parkowa (Załom) 12","",53.427578,14.719799,"http://www.zditm.szczecin.pl/s71912",,,
72011,"72011","Załom Kościół (Załom Krzyżówka) 11","",53.434551,14.731391,"http://www.zditm.szczecin.pl/s72011",,,
72021,"72021","Załom Kościół (Załom Krzyżówka) 21","",53.434678,14.730021,"http://www.zditm.szczecin.pl/s72021",,,
72111,"72111","Kablowa 11","",53.427181,14.738372,"http://www.zditm.szczecin.pl/s72111",,,
72112,"72112","Kablowa 12","",53.427021,14.738513,"http://www.zditm.szczecin.pl/s72112",,,
72211,"72211","Załom Szkoła 11","",53.429264,14.736386,"http://www.zditm.szczecin.pl/s72211",,,
72221,"72221","Załom Szkoła 21","",53.428972,14.738368,"http://www.zditm.szczecin.pl/s72221",,,
72311,"72311","Ogrody ""Załomiak"" nż 11","na żądanie",53.432505,14.746150,"http://www.zditm.szczecin.pl/s72311",,,
72411,"72411","Osiedle Kasztanowe 11","",53.435717,14.745031,"http://www.zditm.szczecin.pl/s72411",,,1
72511,"72511","Tczewska nż 11","na żądanie",53.397408,14.678042,"http://www.zditm.szczecin.pl/s72511",,,
72512,"72512","Tczewska nż 12","na żądanie",53.397401,14.677914,"http://www.zditm.szczecin.pl/s72512",,,
72611,"72611","Nowogardzka (Elbląska) nż 11","na żądanie",53.396977,14.686568,"http://www.zditm.szczecin.pl/s72611",,,
72612,"72612","Nowogardzka (Elbląska) nż 12","na żądanie",53.396983,14.687348,"http://www.zditm.szczecin.pl/s72612",,,
72711,"72711","Słupska nż 11","na żądanie",53.397022,14.692102,"http://www.zditm.szczecin.pl/s72711",,,
72712,"72712","Słupska nż 12","na żądanie",53.396987,14.690681,"http://www.zditm.szczecin.pl/s72712",,,
72811,"72811","Junaków (Park Leśny) nż 11","na żądanie",53.394015,14.709483,"http://www.zditm.szczecin.pl/s72811",,,
72812,"72812","Junaków (Park Leśny) nż 12","na żądanie",53.394436,14.707978,"http://www.zditm.szczecin.pl/s72812",,,
72911,"72911","Wolframowa (Wielgowo Autostrada) nż 11","na żądanie",53.393230,14.728782,"http://www.zditm.szczecin.pl/s72911",,,
72912,"72912","Wolframowa (Wielgowo Autostrada) nż 12","na żądanie",53.393100,14.730419,"http://www.zditm.szczecin.pl/s72912",,,
73011,"73011","Osada Leśna (Wielgowo Las) nż 11","na żądanie",53.393733,14.746144,"http://www.zditm.szczecin.pl/s73011",,,1
73012,"73012","Osada Leśna (Wielgowo Las) nż 12","na żądanie",53.393716,14.746629,"http://www.zditm.szczecin.pl/s73012",,,1
73111,"73111","Radiostacja nż 11","na żądanie",53.394132,14.753310,"http://www.zditm.szczecin.pl/s73111",,,
73112,"73112","Radiostacja nż 12","na żądanie",53.394095,14.753536,"http://www.zditm.szczecin.pl/s73112",,,
73211,"73211","Bryczkowskiego nż 11","na żądanie",53.395146,14.766589,"http://www.zditm.szczecin.pl/s73211",,,
73221,"73221","Bryczkowskiego nż 21","na żądanie",53.393818,14.765651,"http://www.zditm.szczecin.pl/s73221",,,
73231,"73231","Bryczkowskiego nż 31","na żądanie",53.394763,14.764839,"http://www.zditm.szczecin.pl/s73231",,,
73311,"73311","Bałtycka 11","",53.391200,14.765233,"http://www.zditm.szczecin.pl/s73311",,,
73312,"73312","Bałtycka 12","",53.390853,14.765284,"http://www.zditm.szczecin.pl/s73312",,,
73411,"73411","Wiślana 11","",53.386447,14.764519,"http://www.zditm.szczecin.pl/s73411",,,
73412,"73412","Wiślana 12","",53.385883,14.764597,"http://www.zditm.szczecin.pl/s73412",,,
73511,"73511","Wielgowo nż 11","na żądanie",53.383639,14.765316,"http://www.zditm.szczecin.pl/s73511",,,
73512,"73512","Wielgowo nż 12","na żądanie",53.383469,14.765508,"http://www.zditm.szczecin.pl/s73512",,,
73611,"73611","Zdunowo Dworzec nż 11","na żądanie",53.382406,14.765313,"http://www.zditm.szczecin.pl/s73611",,,
73612,"73612","Zdunowo Dworzec nż 12","na żądanie",53.382477,14.765592,"http://www.zditm.szczecin.pl/s73612",,,
73621,"73621","Zdunowo Dworzec nż 21","na żądanie",53.382189,14.764986,"http://www.zditm.szczecin.pl/s73621",,,
73711,"73711","Zdunowo Szpital 11","",53.379822,14.767304,"http://www.zditm.szczecin.pl/s73711",,,
73712,"73712","Zdunowo Szpital 12","",53.379769,14.767333,"http://www.zditm.szczecin.pl/s73712",,,
73911,"73911","Przylesie Ośrodek nż 11","na żądanie",53.364612,14.747858,"http://www.zditm.szczecin.pl/s73911",,,
73912,"73912","Przylesie Ośrodek nż 12","na żądanie",53.364801,14.747761,"http://www.zditm.szczecin.pl/s73912",,,
74011,"74011","Przylesie Leśniczówka nż 11","na żądanie",53.370054,14.741104,"http://www.zditm.szczecin.pl/s74011",,,
74012,"74012","Przylesie Leśniczówka nż 12","na żądanie",53.369913,14.741195,"http://www.zditm.szczecin.pl/s74012",,,
74111,"74111","Stary Szlak nż 11","na żądanie",53.376784,14.742818,"http://www.zditm.szczecin.pl/s74111",,,
74112,"74112","Stary Szlak nż 12","na żądanie",53.377306,14.743899,"http://www.zditm.szczecin.pl/s74112",,,
74211,"74211","Drwali nż 11","na żądanie",53.378859,14.747517,"http://www.zditm.szczecin.pl/s74211",,,
74212,"74212","Drwali nż 12","na żądanie",53.378965,14.748021,"http://www.zditm.szczecin.pl/s74212",,,
74311,"74311","Lutyków 11","",53.382414,14.756478,"http://www.zditm.szczecin.pl/s74311",,,
74312,"74312","Lutyków 12","",53.382259,14.756269,"http://www.zditm.szczecin.pl/s74312",,,
74411,"74411","Fiołkowa nż 11","na żądanie",53.397404,14.769814,"http://www.zditm.szczecin.pl/s74411",,,
74511,"74511","Wielgowo Borsucza 11","",53.399176,14.772763,"http://www.zditm.szczecin.pl/s74511",,,
74512,"74512","Wielgowo Borsucza 12","",53.399177,14.772612,"http://www.zditm.szczecin.pl/s74512",,,
74611,"74611","Przylesie nż 11","na żądanie",53.362724,14.752203,"http://www.zditm.szczecin.pl/s74611",,,
74612,"74612","Przylesie nż 12","na żądanie",53.362656,14.752305,"http://www.zditm.szczecin.pl/s74612",,,
74711,"74711","Pomorska 11","",53.384940,14.679640,"http://www.zditm.szczecin.pl/s74711",,,
74712,"74712","Pomorska 12","",53.385174,14.679402,"http://www.zditm.szczecin.pl/s74712",,,
74811,"74811","Zakłady Mięsne 11","",53.386936,14.682243,"http://www.zditm.szczecin.pl/s74811",,,
74911,"74911","Letnia nż 11","na żądanie",53.389009,14.676193,"http://www.zditm.szczecin.pl/s74911",,,
74912,"74912","Letnia nż 12","na żądanie",53.389026,14.676265,"http://www.zditm.szczecin.pl/s74912",,,
80112,"80112","Hangarowa nż 12","na żądanie",53.387729,14.626029,"http://www.zditm.szczecin.pl/s80112",,,1
80113,"80113","Hangarowa nż 13","na żądanie",53.387666,14.626091,"http://www.zditm.szczecin.pl/s80113",,,1
80114,"80114","Hangarowa nż 14","na żądanie",53.387359,14.626514,"http://www.zditm.szczecin.pl/s80114",,,
80211,"80211","Rondo Ułanów Podolskich 11","",53.383715,14.633370,"http://www.zditm.szczecin.pl/s80211",,,
80221,"80221","Rondo Ułanów Podolskich 21","",53.383222,14.634969,"http://www.zditm.szczecin.pl/s80221",,,
80231,"80231","Rondo Ułanów Podolskich 31","",53.382755,14.634175,"http://www.zditm.szczecin.pl/s80231",,,
80241,"80241","Rondo Ułanów Podolskich 41","",53.382790,14.632887,"http://www.zditm.szczecin.pl/s80241",,,
80311,"80311","Bagienna 11","",53.385472,14.647307,"http://www.zditm.szczecin.pl/s80311",,,
80321,"80321","Bagienna 21","",53.384635,14.646516,"http://www.zditm.szczecin.pl/s80321",,,
80331,"80331","Bagienna 31","",53.384691,14.644094,"http://www.zditm.szczecin.pl/s80331",,,
80411,"80411","Struga Zajezdnia nż 11","na żądanie",53.384505,14.653277,"http://www.zditm.szczecin.pl/s80411",,,
80413,"80413","Struga Zajezdnia nż 13","na żądanie",53.383859,14.652269,"http://www.zditm.szczecin.pl/s80413",,,
80521,"80521","Wiosenna nż 21","na żądanie",53.383787,14.661874,"http://www.zditm.szczecin.pl/s80521",,,
80522,"80522","Wiosenna nż 22","na żądanie",53.383779,14.661372,"http://www.zditm.szczecin.pl/s80522",,,
80551,"80551","Wiosenna 51","",53.383145,14.658232,"http://www.zditm.szczecin.pl/s80551",,,
80561,"80561","Wiosenna 61","",53.384102,14.658508,"http://www.zditm.szczecin.pl/s80561",,,
80611,"80611","Botaniczna (płn. Struga) nż 11","na żądanie",53.383117,14.668911,"http://www.zditm.szczecin.pl/s80611",,,
80612,"80612","Botaniczna (płn. Struga) nż 12","na żądanie",53.382974,14.669923,"http://www.zditm.szczecin.pl/s80612",,,
80613,"80613","Botaniczna 13","",53.382067,14.670240,"http://www.zditm.szczecin.pl/s80613",,,
80614,"80614","Botaniczna 14","",53.382328,14.667920,"http://www.zditm.szczecin.pl/s80614",,,
80622,"80622","Botaniczna 22","",53.380906,14.668791,"http://www.zditm.szczecin.pl/s80622",,,
80711,"80711","Struga nż 11","na żądanie",53.382307,14.681253,"http://www.zditm.szczecin.pl/s80711",,,
80712,"80712","Struga nż 12","na żądanie",53.382238,14.681524,"http://www.zditm.szczecin.pl/s80712",,,
80713,"80713","Struga nż 13","na żądanie",53.381222,14.679772,"http://www.zditm.szczecin.pl/s80713",,,
80714,"80714","Struga nż 14","na żądanie",53.381245,14.679209,"http://www.zditm.szczecin.pl/s80714",,,
80911,"80911","Kijewo Autostrada nż 11","na żądanie",53.375094,14.698537,"http://www.zditm.szczecin.pl/s80911",,,
81011,"81011","Szosa Stargardzka (Balińskiego) nż 11","na żądanie",53.362840,14.739819,"http://www.zditm.szczecin.pl/s81011",,,
81012,"81012","Szosa Stargardzka (Balińskiego) nż 12","na żądanie",53.362927,14.739091,"http://www.zditm.szczecin.pl/s81012",,,
81111,"81111","Płonia Most (Unikon) 11","",53.361859,14.748147,"http://www.zditm.szczecin.pl/s81111",,,
81112,"81112","Płonia Most (Unikon) 12","",53.361499,14.747380,"http://www.zditm.szczecin.pl/s81112",,,
81211,"81211","Uczniowska (Płonia) 11","",53.359208,14.744355,"http://www.zditm.szczecin.pl/s81211",,,
81212,"81212","Uczniowska (Płonia) 12","",53.358110,14.744499,"http://www.zditm.szczecin.pl/s81212",,,
81311,"81311","Przyszłości PEKAES nż 11","na żądanie",53.354261,14.744631,"http://www.zditm.szczecin.pl/s81311",,,
81312,"81312","Przyszłości PEKAES nż 12","na żądanie",53.353750,14.744727,"http://www.zditm.szczecin.pl/s81312",,,
81411,"81411","Przyszłości 11","",53.351414,14.745360,"http://www.zditm.szczecin.pl/s81411",,,
81511,"81511","Pyrzycka 11","",53.344760,14.751260,"http://www.zditm.szczecin.pl/s81511",,,
81512,"81512","Pyrzycka 12","",53.345747,14.750494,"http://www.zditm.szczecin.pl/s81512",,,
81611,"81611","Śmierdnica 11","",53.342775,14.756038,"http://www.zditm.szczecin.pl/s81611",,,
81612,"81612","Śmierdnica 12","",53.342708,14.756070,"http://www.zditm.szczecin.pl/s81612",,,
81711,"81711","Topolowa Stadion nż 11","na żądanie",53.342124,14.761337,"http://www.zditm.szczecin.pl/s81711",,,
81712,"81712","Topolowa Stadion nż 12","na żądanie",53.342089,14.761353,"http://www.zditm.szczecin.pl/s81712",,,
81811,"81811","Topolowa nż 11","na żądanie",53.343369,14.768912,"http://www.zditm.szczecin.pl/s81811",,,
81812,"81812","Topolowa nż 12","na żądanie",53.343100,14.768489,"http://www.zditm.szczecin.pl/s81812",,,
81911,"81911","Jezierzyce 11","",53.342455,14.778162,"http://www.zditm.szczecin.pl/s81911",,,
82011,"82011","Sanatoryjna nż 11","na żądanie",53.380150,14.628093,"http://www.zditm.szczecin.pl/s82011",,,
82012,"82012","Sanatoryjna nż 12","na żądanie",53.379543,14.627080,"http://www.zditm.szczecin.pl/s82012",,,
82111,"82111","Jez. Szmaragdowe 11","",53.377386,14.619476,"http://www.zditm.szczecin.pl/s82111",,,
82112,"82112","Jez. Szmaragdowe 12","",53.377985,14.621788,"http://www.zditm.szczecin.pl/s82112",,,
82211,"82211","Grabowa nż 11","na żądanie",53.375438,14.613144,"http://www.zditm.szczecin.pl/s82211",,,
82212,"82212","Grabowa nż 12","na żądanie",53.375080,14.612151,"http://www.zditm.szczecin.pl/s82212",,,
82311,"82311","Złota nż 11","na żądanie",53.372752,14.607084,"http://www.zditm.szczecin.pl/s82311",,,
82312,"82312","Złota nż 12","na żądanie",53.372934,14.607527,"http://www.zditm.szczecin.pl/s82312",,,
82411,"82411","Granitowa 11","",53.369404,14.601404,"http://www.zditm.szczecin.pl/s82411",,,
82412,"82412","Granitowa 12","",53.369524,14.601461,"http://www.zditm.szczecin.pl/s82412",,,
82511,"82511","Podjuchy 11","",53.367743,14.595803,"http://www.zditm.szczecin.pl/s82511",,,
82512,"82512","Podjuchy 12","",53.367708,14.595733,"http://www.zditm.szczecin.pl/s82512",,,
82513,"82513","Podjuchy 13","",53.367666,14.595664,"http://www.zditm.szczecin.pl/s82513",,,
82514,"82514","Podjuchy 14","",53.367626,14.595605,"http://www.zditm.szczecin.pl/s82514",,,
82515,"82515","Podjuchy 15","",53.367527,14.596106,"http://www.zditm.szczecin.pl/s82515",,,
82611,"82611","Metalowa 11","",53.365249,14.593043,"http://www.zditm.szczecin.pl/s82611",,,
82612,"82612","Metalowa 12","",53.364371,14.592141,"http://www.zditm.szczecin.pl/s82612",,,
82711,"82711","Podjuchy Dworzec nż 11","na żądanie",53.360126,14.587237,"http://www.zditm.szczecin.pl/s82711",,,
82712,"82712","Podjuchy Dworzec nż 12","na żądanie",53.359522,14.586646,"http://www.zditm.szczecin.pl/s82712",,,
82811,"82811","Dmowskiego (Przodowników Pracy) nż 11","na żądanie",53.355379,14.581271,"http://www.zditm.szczecin.pl/s82811",,,
82812,"82812","Dmowskiego (Przodowników Pracy) nż 12","na żądanie",53.355716,14.581895,"http://www.zditm.szczecin.pl/s82812",,,
82911,"82911","Transportowa 11","",53.352264,14.575451,"http://www.zditm.szczecin.pl/s82911",,,
82912,"82912","Transportowa 12","",53.352781,14.576658,"http://www.zditm.szczecin.pl/s82912",,,
83011,"83011","Żydowce 11","",53.349753,14.573364,"http://www.zditm.szczecin.pl/s83011",,,
83111,"83111","Rymarska 11","",53.348031,14.566996,"http://www.zditm.szczecin.pl/s83111",,,
83112,"83112","Rymarska 12","",53.347514,14.566092,"http://www.zditm.szczecin.pl/s83112",,,
83211,"83211","Sucha (Klucz) 11","",53.344572,14.560151,"http://www.zditm.szczecin.pl/s83211",,,
83212,"83212","Sucha (Klucz) 12","",53.344742,14.560640,"http://www.zditm.szczecin.pl/s83212",,,
83311,"83311","Klucz 11","",53.343483,14.557769,"http://www.zditm.szczecin.pl/s83311",,,
83411,"83411","Kluczborska nż 11","na żądanie",53.340091,14.552641,"http://www.zditm.szczecin.pl/s83411",,,
83412,"83412","Kluczborska nż 12","na żądanie",53.340673,14.553789,"http://www.zditm.szczecin.pl/s83412",,,
83511,"83511","Klucz Autostrada 11","",53.334995,14.545335,"http://www.zditm.szczecin.pl/s83511",,,
83611,"83611","Krzemienna 11","",53.367445,14.599059,"http://www.zditm.szczecin.pl/s83611",,,
83612,"83612","Krzemienna 12","",53.367546,14.599179,"http://www.zditm.szczecin.pl/s83612",,,
83811,"83811","Miechowska nż 11","na żądanie",53.363740,14.597682,"http://www.zditm.szczecin.pl/s83811",,,
83812,"83812","Miechowska nż 12","na żądanie",53.364314,14.597969,"http://www.zditm.szczecin.pl/s83812",,,0
83911,"83911","Przewiewna nż 11","na żądanie",53.360713,14.596737,"http://www.zditm.szczecin.pl/s83911",,,
83921,"83921","Przewiewna nż 21","na żądanie",53.361130,14.596606,"http://www.zditm.szczecin.pl/s83921",,,
84011,"84011","Smocza - Falskiego 11","",53.358254,14.598501,"http://www.zditm.szczecin.pl/s84011",,,
84111,"84111","Zdroje Dworzec 11","",53.379294,14.636494,"http://www.zditm.szczecin.pl/s84111",,,
84112,"84112","Zdroje Dworzec 12","",53.379327,14.636538,"http://www.zditm.szczecin.pl/s84112",,,
84211,"84211","Walecznych 11","",53.374267,14.645032,"http://www.zditm.szczecin.pl/s84211",,,
84221,"84221","Walecznych nż 21","na żądanie",53.374722,14.643447,"http://www.zditm.szczecin.pl/s84221",,,
84311,"84311","Zdroje Szpital 11","",53.373606,14.644073,"http://www.zditm.szczecin.pl/s84311",,,
84312,"84312","Zdroje Szpital 12","",53.373277,14.644324,"http://www.zditm.szczecin.pl/s84312",,,
84411,"84411","Mączna 11","",53.369020,14.644700,"http://www.zditm.szczecin.pl/s84411",,,
84412,"84412","Mączna 12","",53.370111,14.644834,"http://www.zditm.szczecin.pl/s84412",,,
84511,"84511","Fioletowa 11","",53.364323,14.650833,"http://www.zditm.szczecin.pl/s84511",,,
84512,"84512","Fioletowa 12","",53.364575,14.649631,"http://www.zditm.szczecin.pl/s84512",,,
84611,"84611","Osiedle Bukowe 11","",53.367653,14.653556,"http://www.zditm.szczecin.pl/s84611",,,
84612,"84612","Osiedle Bukowe 12","",53.367576,14.653540,"http://www.zditm.szczecin.pl/s84612",,,
84613,"84613","Osiedle Bukowe 13","",53.367515,14.653546,"http://www.zditm.szczecin.pl/s84613",,,
84621,"84621","Osiedle Bukowe 21","",53.367355,14.653910,"http://www.zditm.szczecin.pl/s84621",,,
84622,"84622","Osiedle Bukowe 22","",53.366888,14.654026,"http://www.zditm.szczecin.pl/s84622",,,
84711,"84711","Kolorowych Domów 11","",53.368296,14.656603,"http://www.zditm.szczecin.pl/s84711",,,
84712,"84712","Kolorowych Domów 12","",53.368263,14.656772,"http://www.zditm.szczecin.pl/s84712",,,
84811,"84811","Rondo Reagana (Klęskowo) nż 11","na żądanie",53.371472,14.660466,"http://www.zditm.szczecin.pl/s84811",,,
84821,"84821","Rondo Reagana (Klęskowo I) 21","",53.370301,14.661360,"http://www.zditm.szczecin.pl/s84821",,,
84831,"84831","Rondo Reagana (Klęskowo) nż 31","na żądanie",53.369683,14.659633,"http://www.zditm.szczecin.pl/s84831",,,
84841,"84841","Rondo Reagana (Klęskowo) nż 41","na żądanie",53.370456,14.658383,"http://www.zditm.szczecin.pl/s84841",,,
84911,"84911","Pszenna 11","",53.373171,14.649909,"http://www.zditm.szczecin.pl/s84911",,,
84912,"84912","Pszenna 12","",53.373423,14.648998,"http://www.zditm.szczecin.pl/s84912",,,
85011,"85011","Osiedle Słoneczne 11","",53.374271,14.661376,"http://www.zditm.szczecin.pl/s85011",,,
85012,"85012","Osiedle Słoneczne 12","",53.373701,14.661296,"http://www.zditm.szczecin.pl/s85012",,,
85041,"85041","Osiedle Słoneczne (Przelotowa) 41","",53.373513,14.659833,"http://www.zditm.szczecin.pl/s85041",,,
85051,"85051","Osiedle Słoneczne 51","",53.373635,14.660353,"http://www.zditm.szczecin.pl/s85051",,,
85052,"85052","Osiedle Słoneczne 52","",53.373616,14.660450,"http://www.zditm.szczecin.pl/s85052",,,
85053,"85053","Osiedle Słoneczne 53","",53.373593,14.660530,"http://www.zditm.szczecin.pl/s85053",,,
85054,"85054","Osiedle Słoneczne 54","",53.373581,14.660627,"http://www.zditm.szczecin.pl/s85054",,,
85111,"85111","Przelotowa 11","",53.374096,14.656797,"http://www.zditm.szczecin.pl/s85111",,,
85211,"85211","Lniana nż 11","na żądanie",53.375562,14.649313,"http://www.zditm.szczecin.pl/s85211",,,
85212,"85212","Lniana nż 12","na żądanie",53.375456,14.649576,"http://www.zditm.szczecin.pl/s85212",,,
85311,"85311","Jasna Osiedle 11","",53.378717,14.649501,"http://www.zditm.szczecin.pl/s85311",,,
85312,"85312","Jasna Osiedle 12","",53.379160,14.650027,"http://www.zditm.szczecin.pl/s85312",,,
85411,"85411","Jasna 11","",53.382010,14.652301,"http://www.zditm.szczecin.pl/s85411",,,
85412,"85412","Jasna 12","",53.381478,14.652068,"http://www.zditm.szczecin.pl/s85412",,,
85511,"85511","Łubinowa 11","",53.378758,14.660549,"http://www.zditm.szczecin.pl/s85511",,,
85512,"85512","Łubinowa 12","",53.377863,14.660939,"http://www.zditm.szczecin.pl/s85512",,,
85611,"85611","Sanktuarium 11","",53.381798,14.659645,"http://www.zditm.szczecin.pl/s85611",,,
85711,"85711","Dąbska 11","",53.370774,14.667279,"http://www.zditm.szczecin.pl/s85711",,,
85712,"85712","Dąbska 12","",53.370684,14.667499,"http://www.zditm.szczecin.pl/s85712",,,
85722,"85722","Dąbska 22","",53.370265,14.666742,"http://www.zditm.szczecin.pl/s85722",,,
85811,"85811","Olszynki Grochowskiej (Jachowicza) nż 11","na żądanie",53.372001,14.675028,"http://www.zditm.szczecin.pl/s85811",,,
85812,"85812","Olszynki Grochowskiej (Jachowicza) nż 12","na żądanie",53.371908,14.674703,"http://www.zditm.szczecin.pl/s85812",,,
85911,"85911","Kalenicka (Ciepłownia) nż 11","na żądanie",53.372749,14.680869,"http://www.zditm.szczecin.pl/s85911",,,
85912,"85912","Kalenicka (Ciepłownia) nż 12","na żądanie",53.372817,14.681819,"http://www.zditm.szczecin.pl/s85912",,,
86011,"86011","Jelenia 11","",53.374208,14.687449,"http://www.zditm.szczecin.pl/s86011",,,
86012,"86012","Jelenia 12","",53.374672,14.688205,"http://www.zditm.szczecin.pl/s86012",,,
86121,"86121","Kijewo (Zwierzyniecka) 21","",53.377091,14.691329,"http://www.zditm.szczecin.pl/s86121",,,
86122,"86122","Kijewo (Zwierzyniecka) 22","",53.376685,14.692104,"http://www.zditm.szczecin.pl/s86122",,,
86131,"86131","Kijewo 31","",53.376441,14.689996,"http://www.zditm.szczecin.pl/s86131",,,
86132,"86132","Kijewo 32","",53.375679,14.688948,"http://www.zditm.szczecin.pl/s86132",,,
86141,"86141","Kijewo 41","",53.377068,14.690035,"http://www.zditm.szczecin.pl/s86141",,,
86211,"86211","Gwarna 11","",53.368861,14.667685,"http://www.zditm.szczecin.pl/s86211",,,
86212,"86212","Gwarna 12","",53.368748,14.667827,"http://www.zditm.szczecin.pl/s86212",,,
86311,"86311","Swojska 11","",53.365841,14.664456,"http://www.zditm.szczecin.pl/s86311",,,
86312,"86312","Swojska 12","",53.366014,14.665233,"http://www.zditm.szczecin.pl/s86312",,,
86411,"86411","Chłopska 11","",53.365548,14.661753,"http://www.zditm.szczecin.pl/s86411",,,
86412,"86412","Chłopska 12","",53.365432,14.661747,"http://www.zditm.szczecin.pl/s86412",,,
86511,"86511","Most Gryfitów nż 11","na żądanie",53.373466,14.600838,"http://www.zditm.szczecin.pl/s86511",,,
86512,"86512","Most Gryfitów nż 12","na żądanie",53.373104,14.601624,"http://www.zditm.szczecin.pl/s86512",,,
86611,"86611","Torfowa nż 11","na żądanie",53.384337,14.642130,"http://www.zditm.szczecin.pl/s86611",,,
86711,"86711","Jaśminowa ZUS 11","",53.384141,14.638187,"http://www.zditm.szczecin.pl/s86711",,,1
86712,"86712","Jaśminowa ZUS 12","",53.384285,14.638085,"http://www.zditm.szczecin.pl/s86712",,,1
86721,"86721","Jaśminowa ZUS 21","",53.383981,14.639427,"http://www.zditm.szczecin.pl/s86721",,,1
86741,"86741","Jaśminowa ZUS 41","",53.383639,14.637687,"http://www.zditm.szczecin.pl/s86741",,,1
86811,"86811","Tokarska nż 11","na żądanie",53.350159,14.571266,"http://www.zditm.szczecin.pl/s86811",,,
86812,"86812","Tokarska nż 12","na żądanie",53.350413,14.571862,"http://www.zditm.szczecin.pl/s86812",,,
86912,"86912","Turkusowa 12","",53.379124,14.643274,"http://www.zditm.szczecin.pl/s86912",,,
86921,"86921","Turkusowa 21","",53.379712,14.643155,"http://www.zditm.szczecin.pl/s86921",,,
86931,"86931","Turkusowa 31","",53.380023,14.643107,"http://www.zditm.szczecin.pl/s86931",,,
86932,"86932","Turkusowa 32","",53.380087,14.643101,"http://www.zditm.szczecin.pl/s86932",,,
86933,"86933","Turkusowa 33","",53.380128,14.643149,"http://www.zditm.szczecin.pl/s86933",,,
86941,"86941","Turkusowa 41","",53.380123,14.643541,"http://www.zditm.szczecin.pl/s86941",,,
86942,"86942","Turkusowa 42","",53.380398,14.643504,"http://www.zditm.szczecin.pl/s86942",,,
86944,"86944","Turkusowa 44","",53.380251,14.644155,"http://www.zditm.szczecin.pl/s86944",,,
86945,"86945","Turkusowa 45","",53.379914,14.644249,"http://www.zditm.szczecin.pl/s86945",,,
88011,"88011","Wańkowicza nż 11","na żądanie",53.377707,14.667898,"http://www.zditm.szczecin.pl/s88011",,,
88012,"88012","Wańkowicza nż 12","na żądanie",53.377704,14.667928,"http://www.zditm.szczecin.pl/s88012",,,
88121,"88121","Iwaszkiewicza 21","",53.376960,14.664887,"http://www.zditm.szczecin.pl/s88121",,,
88131,"88131","Iwaszkiewicza 31","",53.376544,14.663955,"http://www.zditm.szczecin.pl/s88131",,,
88211,"88211","Zaranie nż 11","na żądanie",53.375763,14.661909,"http://www.zditm.szczecin.pl/s88211",,,
88212,"88212","Zaranie nż 12","na żądanie",53.375688,14.662062,"http://www.zditm.szczecin.pl/s88212",,,
88311,"88311","Balińskiego nż 11","na żądanie",53.362575,14.734755,"http://www.zditm.szczecin.pl/s88311",,,
88312,"88312","Balińskiego nż 12","na żądanie",53.361688,14.735112,"http://www.zditm.szczecin.pl/s88312",,,
88411,"88411","Trzcinowa nż 11","na żądanie",53.357193,14.736633,"http://www.zditm.szczecin.pl/s88411",,,
88412,"88412","Trzcinowa nż 12","na żądanie",53.357208,14.736693,"http://www.zditm.szczecin.pl/s88412",,,
88511,"88511","Rondo Osiedlowców nż 11","na żądanie",53.355757,14.737523,"http://www.zditm.szczecin.pl/s88511",,,
88512,"88512","Rondo Osiedlowców nż 12","na żądanie",53.355818,14.737523,"http://www.zditm.szczecin.pl/s88512",,,
88611,"88611","Piaseczna Szkoła 11","",53.349918,14.744918,"http://www.zditm.szczecin.pl/s88611",,,
88612,"88612","Piaseczna Szkoła 12","",53.350736,14.743829,"http://www.zditm.szczecin.pl/s88612",,,
88711,"88711","Akwarelowa nż 11","na żądanie",53.366715,14.647259,"http://www.zditm.szczecin.pl/s88711",,,
88712,"88712","Akwarelowa nż 12","na żądanie",53.365697,14.648036,"http://www.zditm.szczecin.pl/s88712",,,
88811,"88811","Leśmiana nż 11","na żądanie",53.382678,14.663711,"http://www.zditm.szczecin.pl/s88811",,,
90111,"90111","Bezrzecze Koralowa 11","",53.457272,14.456988,"http://www.zditm.szczecin.pl/s90111",,,
90112,"90112","Bezrzecze Koralowa 12","",53.458076,14.455440,"http://www.zditm.szczecin.pl/s90112",,,
90211,"90211","Bezrzecze 11","",53.461944,14.452455,"http://www.zditm.szczecin.pl/s90211",,,
90212,"90212","Bezrzecze 12","",53.461782,14.452639,"http://www.zditm.szczecin.pl/s90212",,,
90213,"90213","Bezrzecze 13","",53.462317,14.452447,"http://www.zditm.szczecin.pl/s90213",,,
90311,"90311","Ostoja Osiedle 11","",53.417859,14.469161,"http://www.zditm.szczecin.pl/s90311",,,
90312,"90312","Ostoja Osiedle 12","",53.417968,14.469534,"http://www.zditm.szczecin.pl/s90312",,,
90411,"90411","Stobno Kościół 11","",53.413464,14.430371,"http://www.zditm.szczecin.pl/s90411",,,
90412,"90412","Stobno Kościół 12","",53.413425,14.430391,"http://www.zditm.szczecin.pl/s90412",,,
90511,"90511","Przylep 11","",53.413963,14.457530,"http://www.zditm.szczecin.pl/s90511",,,
90512,"90512","Przylep 12","",53.413985,14.458477,"http://www.zditm.szczecin.pl/s90512",,,
90611,"90611","Stobno 65 nż 11","na żądanie",53.414043,14.444135,"http://www.zditm.szczecin.pl/s90611",,,
90612,"90612","Stobno 65 nż 12","na żądanie",53.413989,14.444017,"http://www.zditm.szczecin.pl/s90612",,,
90711,"90711","Stobno 4 nż 11","na żądanie",53.413640,14.432811,"http://www.zditm.szczecin.pl/s90711",,,
90811,"90811","Stobno Stacja 11","",53.409368,14.435439,"http://www.zditm.szczecin.pl/s90811",,,
90911,"90911","Warzymice Osiedle Różane 11","",53.389973,14.475983,"http://www.zditm.szczecin.pl/s90911",,,
90912,"90912","Warzymice Osiedle Różane 12","",53.389843,14.475824,"http://www.zditm.szczecin.pl/s90912",,,0
91011,"91011","Warzymice Hurtownia nż 11","na żądanie",53.386639,14.469798,"http://www.zditm.szczecin.pl/s91011",,,
91012,"91012","Warzymice Hurtownia nż 12","na żądanie",53.386444,14.469578,"http://www.zditm.szczecin.pl/s91012",,,0
91111,"91111","Warzymice 11","",53.384659,14.464176,"http://www.zditm.szczecin.pl/s91111",,,
91112,"91112","Warzymice 12","",53.384611,14.464375,"http://www.zditm.szczecin.pl/s91112",,,
91211,"91211","Warzymice 14 nż 11","na żądanie",53.386502,14.456655,"http://www.zditm.szczecin.pl/s91211",,,
91311,"91311","Będargowo Szkoła 11","",53.388197,14.443483,"http://www.zditm.szczecin.pl/s91311",,,
91411,"91411","Warzymice Os. Dębowe (Kombinat) 11","",53.389851,14.484786,"http://www.zditm.szczecin.pl/s91411",,,
91412,"91412","Warzymice Os. Dębowe (Kombinat) 12","",53.390648,14.485800,"http://www.zditm.szczecin.pl/s91412",,,
91511,"91511","Warzymice Osiedle Kresy 11","",53.385830,14.481493,"http://www.zditm.szczecin.pl/s91511",,,
91512,"91512","Warzymice Osiedle Kresy 12","",53.386639,14.482212,"http://www.zditm.szczecin.pl/s91512",,,
91611,"91611","Przecław Osiedle Zielone Pole 11","",53.380771,14.477502,"http://www.zditm.szczecin.pl/s91611",,,
91612,"91612","Przecław Osiedle Zielone Pole 12","",53.381645,14.478274,"http://www.zditm.szczecin.pl/s91612",,,
91711,"91711","Przecław 11","",53.374870,14.472185,"http://www.zditm.szczecin.pl/s91711",,,
91712,"91712","Przecław 12","",53.374678,14.471960,"http://www.zditm.szczecin.pl/s91712",,,
91811,"91811","Smętowice nż 11","na żądanie",53.354611,14.461985,"http://www.zditm.szczecin.pl/s91811",,,
91812,"91812","Smętowice nż 12","na żądanie",53.355693,14.462905,"http://www.zditm.szczecin.pl/s91812",,,
91821,"91821","Smętowice nż 21","na żądanie",53.353660,14.462626,"http://www.zditm.szczecin.pl/s91821",,,
91911,"91911","Kołbaskowo 11","",53.335710,14.439200,"http://www.zditm.szczecin.pl/s91911",,,
91912,"91912","Kołbaskowo 12","",53.335687,14.439275,"http://www.zditm.szczecin.pl/s91912",,,
92011,"92011","Ustowo Auchan 11","",53.384865,14.506617,"http://www.zditm.szczecin.pl/s92011",,,
92111,"92111","Ustowo 11","",53.383107,14.518341,"http://www.zditm.szczecin.pl/s92111",,,
92112,"92112","Ustowo 12","",53.383441,14.518663,"http://www.zditm.szczecin.pl/s92112",,,
92211,"92211","Kurów Na Klifie I nż 11","na żądanie",53.372893,14.510517,"http://www.zditm.szczecin.pl/s92211",,,
92212,"92212","Kurów Na Klifie I nż 12","na żądanie",53.373184,14.510761,"http://www.zditm.szczecin.pl/s92212",,,
92311,"92311","Kurów Na Klifie II nż 11","na żądanie",53.367479,14.506963,"http://www.zditm.szczecin.pl/s92311",,,
92312,"92312","Kurów Na Klifie II nż 12","na żądanie",53.368001,14.507379,"http://www.zditm.szczecin.pl/s92312",,,
92411,"92411","Kurów 11","",53.365758,14.505842,"http://www.zditm.szczecin.pl/s92411",,,
92412,"92412","Kurów 12","",53.365200,14.505091,"http://www.zditm.szczecin.pl/s92412",,,
92611,"92611","Siadło Dolne 11","",53.353810,14.493970,"http://www.zditm.szczecin.pl/s92611",,,
92612,"92612","Siadło Dolne 12","",53.353663,14.493895,"http://www.zditm.szczecin.pl/s92612",,,
92711,"92711","Siadło Górne 11","",53.350269,14.474937,"http://www.zditm.szczecin.pl/s92711",,,
92712,"92712","Siadło Górne 12","",53.350327,14.474937,"http://www.zditm.szczecin.pl/s92712",,,
92811,"92811","Moczyły 11","",53.323074,14.467148,"http://www.zditm.szczecin.pl/s92811",,,
92812,"92812","Moczyły 12","",53.323071,14.467256,"http://www.zditm.szczecin.pl/s92812",,,
92911,"92911","Kamieniec 11","",53.309022,14.436501,"http://www.zditm.szczecin.pl/s92911",,,
93011,"93011","Rosówek Granica nż 11","na żądanie",53.309371,14.411074,"http://www.zditm.szczecin.pl/s93011",,,
93012,"93012","Rosówek Granica 12","",53.309458,14.411181,"http://www.zditm.szczecin.pl/s93012",,,
93111,"93111","Kamieniec Osiedle nż 11","na żądanie",53.308720,14.431663,"http://www.zditm.szczecin.pl/s93111",,,
93112,"93112","Kamieniec Osiedle nż 12","na żądanie",53.308852,14.432371,"http://www.zditm.szczecin.pl/s93112",,,
93221,"93221","Będargowo 21","",53.390408,14.442257,"http://www.zditm.szczecin.pl/s93221",,,
93331,"93331","Warnik Skrzyżowanie nż 31","na żądanie",53.379459,14.405769,"http://www.zditm.szczecin.pl/s93331",,,
93411,"93411","Barnisław 11","",53.364324,14.410135,"http://www.zditm.szczecin.pl/s93411",,,
93511,"93511","Barnisław 37 nż 11","na żądanie",53.361395,14.414212,"http://www.zditm.szczecin.pl/s93511",,,
93621,"93621","Smolęcin 21","",53.357076,14.439835,"http://www.zditm.szczecin.pl/s93621",,,
93631,"93631","Smolęcin 31","",53.357396,14.438703,"http://www.zditm.szczecin.pl/s93631",,,
93712,"93712","Karwowo 12","",53.371552,14.441201,"http://www.zditm.szczecin.pl/s93712",,,
93812,"93812","Przecław 15 nż 12","na żądanie",53.378525,14.469192,"http://www.zditm.szczecin.pl/s93812",,,
93911,"93911","Stobno 15 nż 11","na żądanie",53.413519,14.427425,"http://www.zditm.szczecin.pl/s93911",,,
93912,"93912","Stobno 15 nż 12","na żądanie",53.413591,14.425614,"http://www.zditm.szczecin.pl/s93912",,,
94011,"94011","Małe Stobno nż 11","na żądanie",53.410331,14.411903,"http://www.zditm.szczecin.pl/s94011",,,
94111,"94111","Bobolin nż 11","na żądanie",53.397321,14.391706,"http://www.zditm.szczecin.pl/s94111",,,
94211,"94211","Bobolin Kościół 11","",53.395174,14.391612,"http://www.zditm.szczecin.pl/s94211",,,
94311,"94311","Warnik 11","",53.382157,14.404385,"http://www.zditm.szczecin.pl/s94311",,,
94411,"94411","Mierzyn Nasienna 11","",53.437467,14.461027,"http://www.zditm.szczecin.pl/s94411",,,
94412,"94412","Mierzyn Nasienna 12","",53.437991,14.461349,"http://www.zditm.szczecin.pl/s94412",,,
94511,"94511","Mierzynianka 11","",53.433840,14.463586,"http://www.zditm.szczecin.pl/s94511",,,
94512,"94512","Mierzynianka 12","",53.432823,14.464949,"http://www.zditm.szczecin.pl/s94512",,,
94611,"94611","Mierzyn Szkoła 11","",53.426821,14.462985,"http://www.zditm.szczecin.pl/s94611",,,
94711,"94711","Mierzyn Spółdzielców nż 11","na żądanie",53.427738,14.475587,"http://www.zditm.szczecin.pl/s94711",,,
94712,"94712","Mierzyn Spółdzielców nż 12","na żądanie",53.427546,14.476659,"http://www.zditm.szczecin.pl/s94712",,,
94811,"94811","Mierzyn 11","",53.429560,14.467089,"http://www.zditm.szczecin.pl/s94811",,,
94812,"94812","Mierzyn 12","",53.428946,14.469600,"http://www.zditm.szczecin.pl/s94812",,,
94911,"94911","Mierzyn Grafitowa 11","",53.431411,14.457380,"http://www.zditm.szczecin.pl/s94911",,,
94912,"94912","Mierzyn Grafitowa 12","",53.431216,14.458009,"http://www.zditm.szczecin.pl/s94912",,,
95011,"95011","Pargowo 11","",53.282480,14.430324,"http://www.zditm.szczecin.pl/s95011",,,
95111,"95111","Ostoja Skrzyżowanie nż 11","na żądanie",53.414876,14.462052,"http://www.zditm.szczecin.pl/s95111",,,
95112,"95112","Ostoja Skrzyżowanie nż 12","na żądanie",53.415100,14.462699,"http://www.zditm.szczecin.pl/s95112",,,
95211,"95211","Rosówek nż 11","na żądanie",53.323858,14.420861,"http://www.zditm.szczecin.pl/s95211",,,
95212,"95212","Rosówek nż 12","na żądanie",53.324157,14.421256,"http://www.zditm.szczecin.pl/s95212",,,
95311,"95311","Wołczkowo Słoneczna nż 11","na żądanie",53.470090,14.449125,"http://www.zditm.szczecin.pl/s95311",,,
95312,"95312","Wołczkowo Słoneczna nż 12","na żądanie",53.470676,14.448585,"http://www.zditm.szczecin.pl/s95312",,,
95411,"95411","Wołczkowo Kościół 11","",53.475691,14.445168,"http://www.zditm.szczecin.pl/s95411",,,
95412,"95412","Wołczkowo Kościół 12","",53.475787,14.443020,"http://www.zditm.szczecin.pl/s95412",,,
95511,"95511","Wołczkowo Piaskowa nż 11","na żądanie",53.475851,14.436512,"http://www.zditm.szczecin.pl/s95511",,,
95512,"95512","Wołczkowo Piaskowa nż 12","na żądanie",53.476059,14.435552,"http://www.zditm.szczecin.pl/s95512",,,
95611,"95611","Wołczkowo Łąkowa nż 11","na żądanie",53.479082,14.424905,"http://www.zditm.szczecin.pl/s95611",,,
95612,"95612","Wołczkowo Łąkowa nż 12","na żądanie",53.478843,14.425593,"http://www.zditm.szczecin.pl/s95612",,,
95711,"95711","Dobra MZAZ nż 11","na żądanie",53.481323,14.412692,"http://www.zditm.szczecin.pl/s95711",,,
95712,"95712","Dobra MZAZ nż 12","na żądanie",53.481295,14.412566,"http://www.zditm.szczecin.pl/s95712",,,
95811,"95811","Dobra Lawendowa nż 11","na żądanie",53.483378,14.407453,"http://www.zditm.szczecin.pl/s95811",,,
95911,"95911","Dobra Spacerowa nż 11","na żądanie",53.485167,14.401056,"http://www.zditm.szczecin.pl/s95911",,,
95912,"95912","Dobra Spacerowa nż 12","na żądanie",53.484737,14.402971,"http://www.zditm.szczecin.pl/s95912",,,
96012,"96012","Dobra Przytulna 12","",53.487149,14.389498,"http://www.zditm.szczecin.pl/s96012",,,
96141,"96141","Dobra Rondo 41","",53.487236,14.385334,"http://www.zditm.szczecin.pl/s96141",,,
96211,"96211","Dobra Osiedle 11","",53.484271,14.378631,"http://www.zditm.szczecin.pl/s96211",,,
96212,"96212","Dobra Osiedle 12","",53.483790,14.378067,"http://www.zditm.szczecin.pl/s96212",,,
96311,"96311","Mierzyn Wspólna nż 11","na żądanie",53.433164,14.447795,"http://www.zditm.szczecin.pl/s96311",,,
96312,"96312","Mierzyn Wspólna nż 12","na żądanie",53.432890,14.449272,"http://www.zditm.szczecin.pl/s96312",,,
96411,"96411","Mierzyn Wichrowa nż 11","na żądanie",53.433435,14.441278,"http://www.zditm.szczecin.pl/s96411",,,
96412,"96412","Mierzyn Wichrowa nż 12","na żądanie",53.433385,14.441041,"http://www.zditm.szczecin.pl/s96412",,,
96511,"96511","Skarbimierzyce 11","",53.435044,14.426813,"http://www.zditm.szczecin.pl/s96511",,,
96512,"96512","Skarbimierzyce 12","",53.434432,14.429273,"http://www.zditm.szczecin.pl/s96512",,,
96621,"96621","Dołuje 21","",53.437127,14.411104,"http://www.zditm.szczecin.pl/s96621",,,
96622,"96622","Dołuje 22","",53.437116,14.412541,"http://www.zditm.szczecin.pl/s96622",,,
96631,"96631","Dołuje 31","",53.436501,14.409894,"http://www.zditm.szczecin.pl/s96631",,,
96632,"96632","Dołuje 32","",53.436488,14.409967,"http://www.zditm.szczecin.pl/s96632",,,
96711,"96711","Dołuje Makowa nż 11","na żądanie",53.442686,14.405152,"http://www.zditm.szczecin.pl/s96711",,,
96712,"96712","Dołuje Makowa nż 12","na żądanie",53.441723,14.406072,"http://www.zditm.szczecin.pl/s96712",,,
96811,"96811","Lubieszyn Targowisko 11","",53.444091,14.397242,"http://www.zditm.szczecin.pl/s96811",,,
96911,"96911","Lubieszyn nż 11","na żądanie",53.447004,14.396354,"http://www.zditm.szczecin.pl/s96911",,,
97041,"97041","Lubieszyn Skrzyżowanie 41","",53.450420,14.385505,"http://www.zditm.szczecin.pl/s97041",,,
97042,"97042","Lubieszyn Skrzyżowanie 42","",53.449864,14.387193,"http://www.zditm.szczecin.pl/s97042",,,
97111,"97111","Lubieszyn Rondo 11","",53.452261,14.379212,"http://www.zditm.szczecin.pl/s97111",,,
97112,"97112","Lubieszyn Rondo 12","",53.452670,14.377630,"http://www.zditm.szczecin.pl/s97112",,,
97211,"97211","Lubieszyn Granica 11","",53.454219,14.375564,"http://www.zditm.szczecin.pl/s97211",,,
97311,"97311","Dobra Oliwkowa nż 11","na żądanie",53.500370,14.396553,"http://www.zditm.szczecin.pl/s97311",,,
97312,"97312","Dobra Oliwkowa nż 12","na żądanie",53.500370,14.396441,"http://www.zditm.szczecin.pl/s97312",,,
97411,"97411","Grzepnica 11","",53.514342,14.406395,"http://www.zditm.szczecin.pl/s97411",,,
97511,"97511","Kościno 11","",53.423079,14.375960,"http://www.zditm.szczecin.pl/s97511",,,
97611,"97611","Kościno Sowy nż 11","na żądanie",53.428630,14.390686,"http://www.zditm.szczecin.pl/s97611",,,
97612,"97612","Kościno Sowy nż 12","na żądanie",53.428621,14.390508,"http://www.zditm.szczecin.pl/s97612",,,
97711,"97711","Dołuje Perkoza nż 11","na żądanie",53.430956,14.396951,"http://www.zditm.szczecin.pl/s97711",,,
97712,"97712","Dołuje Perkoza nż 12","na żądanie",53.430962,14.396860,"http://www.zditm.szczecin.pl/s97712",,,
97811,"97811","Dołuje Kościół nż 11","na żądanie",53.433623,14.407947,"http://www.zditm.szczecin.pl/s97811",,,
97812,"97812","Dołuje Kościół nż 12","na żądanie",53.433633,14.407874,"http://www.zditm.szczecin.pl/s97812",,,
97911,"97911","Wąwelnica 11","",53.452076,14.412530,"http://www.zditm.szczecin.pl/s97911",,,
97912,"97912","Wąwelnica 12","",53.451900,14.412454,"http://www.zditm.szczecin.pl/s97912",,,
98011,"98011","Redlica Rondo nż 11","na żądanie",53.458453,14.420872,"http://www.zditm.szczecin.pl/s98011",,,
98012,"98012","Redlica Rondo nż 12","na żądanie",53.458393,14.420910,"http://www.zditm.szczecin.pl/s98012",,,
98111,"98111","Redlica nż 11","na żądanie",53.457549,14.424938,"http://www.zditm.szczecin.pl/s98111",,,
98112,"98112","Redlica nż 12","na żądanie",53.457519,14.424853,"http://www.zditm.szczecin.pl/s98112",,,
98311,"98311","Buk Skrzyżowanie nż 11","na żądanie",53.494657,14.357282,"http://www.zditm.szczecin.pl/s98311",,,
98312,"98312","Buk Skrzyżowanie nż 12","na żądanie",53.494608,14.357235,"http://www.zditm.szczecin.pl/s98312",,,
98411,"98411","Buk Kościół 11","",53.498217,14.355035,"http://www.zditm.szczecin.pl/s98411",,,
98412,"98412","Buk Kościół 12","",53.498135,14.355000,"http://www.zditm.szczecin.pl/s98412",,,
98511,"98511","Buk Boisko nż 11","na żądanie",53.503032,14.353213,"http://www.zditm.szczecin.pl/s98511",,,
98512,"98512","Buk Boisko nż 12","na żądanie",53.503028,14.353137,"http://www.zditm.szczecin.pl/s98512",,,
98611,"98611","Łęgi Skrzyżowanie nż 11","na żądanie",53.517208,14.350612,"http://www.zditm.szczecin.pl/s98611",,,
98612,"98612","Łęgi Skrzyżowanie nż 12","na żądanie",53.517147,14.350547,"http://www.zditm.szczecin.pl/s98612",,,
98711,"98711","Łęgi Wieś 11","",53.519093,14.360248,"http://www.zditm.szczecin.pl/s98711",,,
98811,"98811","Rzędziny 11","",53.534168,14.334965,"http://www.zditm.szczecin.pl/s98811",,,
98911,"98911","Rzędziny Szkoła 11","",53.532332,14.333729,"http://www.zditm.szczecin.pl/s98911",,,
98912,"98912","Rzędziny Szkoła 12","",53.532346,14.333653,"http://www.zditm.szczecin.pl/s98912",,,
99011,"99011","Stolec Górka nż 11","na żądanie",53.551233,14.309833,"http://www.zditm.szczecin.pl/s99011",,,
99012,"99012","Stolec Górka nż 12","na żądanie",53.551253,14.309755,"http://www.zditm.szczecin.pl/s99012",,,
99111,"99111","Stolec 11","",53.557051,14.313856,"http://www.zditm.szczecin.pl/s99111",,,
99311,"99311","Grzepnica Alabastrowa nż 11","na żądanie",53.510732,14.409777,"http://www.zditm.szczecin.pl/s99311",,,
99312,"99312","Grzepnica Alabastrowa nż 12","na żądanie",53.509962,14.408821,"http://www.zditm.szczecin.pl/s99312",,,
99411,"99411","Dobra Lazurowa nż 11","na żądanie",53.469326,14.388502,"http://www.zditm.szczecin.pl/s99411",,,
99412,"99412","Dobra Lazurowa nż 12","na żądanie",53.468697,14.388302,"http://www.zditm.szczecin.pl/s99412",,,
99511,"99511","Dobra Wiklinowa nż 11","na żądanie",53.479703,14.388916,"http://www.zditm.szczecin.pl/s99511",,,
99512,"99512","Dobra Wiklinowa nż 12","na żądanie",53.479235,14.389054,"http://www.zditm.szczecin.pl/s99512",,,
99611,"99611","Kamionki nż 11","na żądanie",53.314573,14.450996,"http://www.zditm.szczecin.pl/s99611",,,
99612,"99612","Kamionki nż 12","na żądanie",53.314630,14.451291,"http://www.zditm.szczecin.pl/s99612",,,
99711,"99711","Bezrzecze Wilanowska nż 11","na żądanie",53.455222,14.450485,"http://www.zditm.szczecin.pl/s99711",,,
99712,"99712","Bezrzecze Wilanowska nż 12","na żądanie",53.455392,14.451535,"http://www.zditm.szczecin.pl/s99712",,,
99811,"99811","Dobra Stokrotki nż 11","na żądanie",53.494736,14.388830,"http://www.zditm.szczecin.pl/s99811",,,
99812,"99812","Dobra Stokrotki nż 12","na żądanie",53.495468,14.389469,"http://www.zditm.szczecin.pl/s99812",,,
99911,"99911","Dołuje Zimowy Sad nż 11","na żądanie",53.442879,14.409803,"http://www.zditm.szczecin.pl/s99911",,,
99912,"99912","Dołuje Zimowy Sad nż 12","na żądanie",53.441785,14.409720,"http://www.zditm.szczecin.pl/s99912",,,
